[
  {
    "id": 44193,
    "title": "Thẻ quà tặng Hutong",
    "address": [
      {
        "id": "1",
        "address_name": "32B Cao Thắng, P. Lam Sơn, Thành phố Thanh Hóa, Thanh Hoá",
        "lon": 105.775885,
        "lat": 19.8067921
      },
      {
        "id": "2",
        "address_name": "Tầng L5 TTTM Vincom Thủ Đức, Số 216 Võ Văn Ngân, Phường Bình Thọ, Quận Thủ Đức, TPHCM",
        "lon": 106.7629954,
        "lat": 10.849996
      },
      {
        "id": "3",
        "address_name": "Số 32B, đường Cao Thắng, TP. Thanh Hóa, Tỉnh Thanh Hóa",
        "lon": 105.6747502,
        "lat": 18.6764415
      }
    ]
  },
  {
    "id": 44189,
    "title": "Thẻ quà tặng Gogi House",
    "address": [
      {
        "id": "1",
        "address_name": "123 Phố Trần Văn Lai, Mỹ Đình, Nam Từ Liêm, Hà Nội",
        "lon": 105.7750153,
        "lat": 21.0167332
      },
      {
        "id": "2",
        "address_name": "Lô 1- F1 -Tầng 1, Số 18 Phan Văn Trị, P.10, Gò Vấp ,Hồ Chí Minh",
        "lon": 106.6827861,
        "lat": 10.8287833
      },
      {
        "id": "3",
        "address_name": "Lô A5 Nguyễn Văn Linh, Bình Hiên, Hải Châu, Đà Nẵng",
        "lon": 108.2197043,
        "lat": 16.0607097
      },
      {
        "id": "4",
        "address_name": "Số 162 Nguyễn Khánh Toàn, P.Quan Hoa, Q.Cầu Giấy, Tp.Hà Nội",
        "lon": 105.7996181,
        "lat": 21.036869
      }
    ]
  },
  {
    "id": 44191,
    "title": "Thẻ quà tặng Isushi",
    "address": [
      {
        "id": "1",
        "address_name": "Lô B3-17 TTTM Vincom Center Đồng Khởi,P.Bến Nghé, Quận 1, Tp.Hồ Chí Minh",
        "lon": 105.7926532,
        "lat": 21.0062451
      },
      {
        "id": "2",
        "address_name": "13 Lê Quý Đôn, Phường 6, Quận 3, HCM",
        "lon": 106.6898905,
        "lat": 10.7800183
      }
    ]
  },
  {
    "id": 44175,
    "title": "Thẻ quà tặng Golf",
    "address": [
      {
        "id": "1",
        "address_name": "Phân Khu chức năng 7 và 8, Khu Du Lịch Hồ Tuyền Lâm, Phường 3, thành phố Đà Lạt, tỉnh Lâm Đồng",
        "lon": 108.4495355,
        "lat": 11.8826599
      },
      {
        "id": "2",
        "address_name": "Xã Dân Hạ, Kỳ Sơn, Hoà Bình",
        "lon": 105.3585426,
        "lat": 20.890482
      },
      {
        "id": "3",
        "address_name": "Đồng Mô, Sơn Tây, Hà Nội",
        "lon": 105.8531837,
        "lat": 21.0223649
      },
      {
        "id": "4",
        "address_name": "Thôn Cộng Hòa, xã Phù Linh, Sóc Sơn, Hà Nội",
        "lon": 105.8531837,
        "lat": 21.0223649
      },
      {
        "id": "5",
        "address_name": "Khu vực hồ Văn Sơn, Xã Hoàng Văn Thụ, Huyện Chương Mỹ, Hà Nội",
        "lon": 105.5568623,
        "lat": 20.9071827
      },
      {
        "id": "6",
        "address_name": "Số 445 đường Nguyễn Thái Học – KDC Thái Học 3, Phường Sao Đỏ, Thành phố Chí Linh, Hải Dương",
        "lon": 106.4011533,
        "lat": 21.0988812
      },
      {
        "id": "7",
        "address_name": "Ngọc Xuyên, Đồ Sơn, Hải Phòng",
        "lon": 106.7580984,
        "lat": 20.7253688
      },
      {
        "id": "8",
        "address_name": "Xã Minh Trí, Huyện Sóc Sơn, Hà Nội",
        "lon": 105.7311767,
        "lat": 21.2973996
      },
      {
        "id": "9",
        "address_name": "Gành Dầu, Tp. Phú Quốc, tỉnh Kiên Giang",
        "lon": 103.8536578,
        "lat": 10.3446679
      },
      {
        "id": "10",
        "address_name": "2 Đường Trần Nhân Tông, Phường 8, Thành phố Đà Lạt, Lâm Đồng",
        "lon": 108.4466833,
        "lat": 11.9510244
      },
      {
        "id": "11",
        "address_name": "1 Thùy Vân, Thành phố Vũng Tầu, Bà Rịa - Vũng Tàu",
        "lon": 107.1086611,
        "lat": 10.3645757
      },
      {
        "id": "12",
        "address_name": "Đảo Ông Cồn, Hiệp Phước, Đại Phước, Đồng Nai",
        "lon": 102.6047033,
        "lat": 15.8152201
      },
      {
        "id": "13",
        "address_name": "368 Trần Ngọc Lên, Định Hoà, Thủ Dầu Một, Bình Dương",
        "lon": 106.6681843,
        "lat": 11.0228349
      },
      {
        "id": "14",
        "address_name": "QL1A, Trảng Bom, Đồng Nai",
        "lon": 105.4691314,
        "lat": 10.9432862
      },
      {
        "id": "15",
        "address_name": "77 Đại lộ Bình Dương, Lái Thiêu, Thị xã Thuận An, Bình Dương",
        "lon": 106.7060283,
        "lat": 10.9250854
      },
      {
        "id": "16",
        "address_name": "Phước Tân, Biên Hòa, Đồng Nai",
        "lon": 106.8783232,
        "lat": 10.8505558
      },
      {
        "id": "17",
        "address_name": "Hoàng Hữu Nam, Long Thạnh Mỹ, Quận 9, Hồ Chí Minh",
        "lon": 106.8236785,
        "lat": 10.8663302
      },
      {
        "id": "18",
        "address_name": "Đường tỉnh 706B, khu phố 1, Thành phố Phan Thiết, Bình Thuận",
        "lon": 108.1822322,
        "lat": 10.9424681
      },
      {
        "id": "19",
        "address_name": "Cam Hải Đông, Cam Ranh, Khánh Hòa",
        "lon": 109.2439145,
        "lat": 11.9719423
      },
      {
        "id": "20",
        "address_name": "Phước Trung, Thành phố Nha Trang, Khánh Hòa",
        "lon": 109.1112199,
        "lat": 12.1920094
      },
      {
        "id": "21",
        "address_name": "Đảo Hòn Tre, Tỉnh Khánh Hòa",
        "lon": 109.2582105,
        "lat": 12.209105
      },
      {
        "id": "22",
        "address_name": "Lộc Vĩnh, Phú Lộc, Thừa Thiên Huế",
        "lon": 105.1661853,
        "lat": 16.5785332
      },
      {
        "id": "23",
        "address_name": "An Sơn, Hoà Ninh, Hòa Vang, Đà Nẵng",
        "lon": 108.0491692,
        "lat": 16.0174172
      },
      {
        "id": "24",
        "address_name": "Bình Minh, Thăng Bình, Quảng Nam",
        "lon": 108.3660316,
        "lat": 15.7906326
      },
      {
        "id": "25",
        "address_name": "Điện Ngọc, Điện Bàn, Quảng Nam",
        "lon": 108.2862744,
        "lat": 15.961152
      },
      {
        "id": "26",
        "address_name": "Hoà Hải, Ngũ Hành Sơn, Đà Nẵng",
        "lon": 108.2757086,
        "lat": 15.9717272
      },
      {
        "id": "27",
        "address_name": "Thông Tân, Hải Ninh, Quảng Ninh, Quảng Bình",
        "lon": 106.7552322,
        "lat": 17.3414598
      },
      {
        "id": "28",
        "address_name": "Nguyễn Du, Ba Sao, Kim Bảng, Hà Nam",
        "lon": 105.8141166,
        "lat": 20.5384124
      },
      {
        "id": "29",
        "address_name": "Thanh Niên, Quảng C, Sầm Sơn, Thanh Hoá",
        "lon": 105.9096452,
        "lat": 19.7566483
      },
      {
        "id": "30",
        "address_name": "Cột 3- Cột 8, Phường Hồng Hà, TP.Hạ Long, Tỉnh Quảng Ninh",
        "lon": 107.1150898,
        "lat": 20.9429632
      },
      {
        "id": "31",
        "address_name": "Khu 4, Thành phố Qui Nhơn, Bình Định",
        "lon": 109.0876157,
        "lat": 13.7859159
      },
      {
        "id": "32",
        "address_name": "Đảo Vũ Yên, Nguyễn Bỉnh Khiêm, Đông Hải 2, Hải An, Hải Phòng",
        "lon": 106.7309195,
        "lat": 20.8702065
      },
      {
        "id": "33",
        "address_name": "Ðường Bình Minh - Nghi Hương - Cửa Lò - Nghệ An",
        "lon": 105.7336196,
        "lat": 18.7904224
      },
      {
        "id": "34",
        "address_name": "Phú Long, Nho Quan, Ninh Bình",
        "lon": 105.7614506,
        "lat": 20.1969787
      },
      {
        "id": "35",
        "address_name": "Thôn 4B, Xã Đông Sơn, Thành phố Tam Điệp, Ninh Bình",
        "lon": 105.9154985,
        "lat": 20.1249699
      },
      {
        "id": "36",
        "address_name": "Thôn Thọ Đa, Xã Kim Nỗ, Huyện Đông Anh, Hà Nội",
        "lon": 105.7986211,
        "lat": 21.1478652
      },
      {
        "id": "37",
        "address_name": "Đinh Tiên Hoàng, Thanh Trù, Vĩnh Yên, Vĩnh Phúc",
        "lon": 105.6140604,
        "lat": 21.2916079
      },
      {
        "id": "38",
        "address_name": "Ngọc Thanh, Phúc Yên, Vĩnh Phúc",
        "lon": 105.7108483,
        "lat": 21.3508352
      }
    ]
  },
  {
    "id": 44188,
    "title": "Thẻ quà tặng Kpub",
    "address": [
      {
        "id": "1",
        "address_name": "Đường Hồ Sen - Cầu Rào 2, phường Kênh Dương, quận Lê Chân, TP Hải Phòng",
        "lon": 106.6839053,
        "lat": 20.825524
      },
      {
        "id": "2",
        "address_name": "Tầng trệt TTTM Aeon Mall Bình Tân - Số 1 Đường số 17A, Bình Trị Đông B, Bình Tân, Hồ Chí Minh.",
        "lon": 106.61595,
        "lat": 10.74396
      }
    ]
  },
  {
    "id": 44181,
    "title": "Thẻ quà tặng Icook",
    "address": [
      {
        "id": "1",
        "address_name": "Số 57 Hàng Chuối, P.Phạm Đình Hổ, Q.Hai Bà Trưng, Tp.Hà Nội",
        "lon": 105.8581136,
        "lat": 21.0155187
      }
    ]
  },
  {
    "id": 44198,
    "title": "Thẻ quà tặng Golden Gate",
    "address": [
      {
        "id": "1",
        "address_name": "35A Nguyễn Đình Chiểu, Phường Đa Kao, Quận 1, TP. Hồ Chí Minh",
        "lon": 106.69715,
        "lat": 10.78569
      },
      {
        "id": "2",
        "address_name": "Lô B3-17 TTTM Vincom Center Đồng Khởi,P.Bến Nghé, Quận 1, Tp.Hồ Chí Minh",
        "lon": 105.7926532,
        "lat": 21.0062451
      },
      {
        "id": "3",
        "address_name": "Ô 111, Tầng 1 TTTM Indochina Plaza, 241 Xuân Thủy, Dịch Vọng Hậu, Cầu Giấy, Hà Nội",
        "lon": 105.785294,
        "lat": 21.036619
      },
      {
        "id": "4",
        "address_name": "101-B1 Phạm Ngọc Thạch, Đống Đa,Hà Nội",
        "lon": 105.8326683,
        "lat": 21.009324
      },
      {
        "id": "5",
        "address_name": "Lô TM3 Đường 3/2, KĐT Phú Cường, P. An Hòa, TP. Rạch Giá- Kiên Giang.",
        "lon": 105.0931186,
        "lat": 9.9708775
      },
      {
        "id": "6",
        "address_name": "Lô 301- 2B TTTM Savico Long Biên, số 79 Nguyễn Văn Linh, P.Gia Thụy, Q.Long Biên, Tp.Hà Nội",
        "lon": 105.8913853,
        "lat": 21.0503254
      },
      {
        "id": "7",
        "address_name": "59B Cao Thắng, Phường 3, Quận 3, Tp.Hồ Chí Minh",
        "lon": 106.6812002,
        "lat": 10.7706438
      },
      {
        "id": "8",
        "address_name": "Tòa nhà 17T4 Hoàng Đạo Thúy, Nhân Chính, Thanh Xuân, Hà Nội",
        "lon": 105.80497,
        "lat": 21.00516
      },
      {
        "id": "9",
        "address_name": "32B Cao Thắng, P. Lam Sơn, Thành phố Thanh Hóa, Thanh Hoá",
        "lon": 105.775885,
        "lat": 19.8067921
      },
      {
        "id": "10",
        "address_name": "Số 57 Hàng Chuối, P.Phạm Đình Hổ, Q.Hai Bà Trưng, Tp.Hà Nội",
        "lon": 105.8581136,
        "lat": 21.0155187
      },
      {
        "id": "11",
        "address_name": "Đường Hồ Sen - Cầu Rào 2, phường Kênh Dương, quận Lê Chân, TP Hải Phòng",
        "lon": 106.6839053,
        "lat": 20.825524
      },
      {
        "id": "12",
        "address_name": "123 Phố Trần Văn Lai, Mỹ Đình, Nam Từ Liêm, Hà Nội",
        "lon": 105.7750153,
        "lat": 21.0167332
      },
      {
        "id": "13",
        "address_name": "Lô T166, tầng 1 TTTM Aeon mall Hà Đông",
        "lon": 105.7549243,
        "lat": 21.0082432
      },
      {
        "id": "14",
        "address_name": "200 Phan Xích Long, P.2, Phú Nhuận, Hồ Chí Minh",
        "lon": 106.6872441,
        "lat": 10.7976689
      },
      {
        "id": "15",
        "address_name": "L5-06 tầng 5, TTTM Vincom Trần Duy Hưng, Cầu Giấy, Hà Nội",
        "lon": 105.7932373,
        "lat": 21.0065148
      },
      {
        "id": "16",
        "address_name": "TTTM Giga Mall, 240 Phạm Văn Đồng, P. Hiệp Bình Chánh, Q. Thủ Đức, TPHCM",
        "lon": 106.71287,
        "lat": 10.82529
      },
      {
        "id": "17",
        "address_name": "366 Phan Văn Trị, Phường 5, Gò Vấp, Hồ Chí Minh",
        "lon": 106.6912388,
        "lat": 10.8237347
      },
      {
        "id": "18",
        "address_name": "F6-Shop B 05-06, Tầng 6, Lotte Đào Tấn, 54 Liễu Giai, Quận Ba Đình, TP. Hà Nội",
        "lon": 105.8104069,
        "lat": 21.0320849
      },
      {
        "id": "19",
        "address_name": "2C Thái Phiên, Hai Bà Trưng, Hà Nội",
        "lon": 105.8491733,
        "lat": 21.010578
      },
      {
        "id": "20",
        "address_name": "L4-21+22 tại TTTM Vincom Đà Nẵng, Đường Ngô Quyền, An Hải Bắc, Sơn Trà, Đà Nẵng",
        "lon": 108.2282148,
        "lat": 16.071558
      },
      {
        "id": "21",
        "address_name": "Số 32B, đường Cao Thắng, TP. Thanh Hóa, Tỉnh Thanh Hóa",
        "lon": 105.775885,
        "lat": 19.8067921
      },
      {
        "id": "22",
        "address_name": "Tầng 2, TTTM Estella, 88 Song Hành (Xa Lộ Hà Nội), Phường An Phú, Quận 2.",
        "lon": 106.7462822,
        "lat": 10.8020658
      },
      {
        "id": "23",
        "address_name": "Gian hàng L5-15, Trung tâm mua sắm Saigon Centre, 92-94 Nam Kỳ Khởi Nghĩa, Bến Nghé, Quận 1, Hồ Chí Minh",
        "lon": 106.70007,
        "lat": 10.7738
      },
      {
        "id": "24",
        "address_name": "Tầng L5 TTTM Vincom Thủ Đức, Số 216 Võ Văn Ngân, Phường Bình Thọ, Quận Thủ Đức, TPHCM",
        "lon": 106.7629954,
        "lat": 10.849996
      },
      {
        "id": "25",
        "address_name": "35A NNguyễn Đình Chiểu, Phường Đa Kao, Quận 1, TP. Hồ Chí Minh",
        "lon": 106.6949356,
        "lat": 10.7858222
      },
      {
        "id": "26",
        "address_name": "Lô 1- F1 -Tầng 1, Số 18 Phan Văn Trị, P.10, Gò Vấp ,Hồ Chí Minh",
        "lon": 106.6827861,
        "lat": 10.8287833
      },
      {
        "id": "27",
        "address_name": "Lô A5 Nguyễn Văn Linh, Bình Hiên, Hải Châu, Đà Nẵng",
        "lon": 108.2197043,
        "lat": 16.0607097
      },
      {
        "id": "28",
        "address_name": "Số 32B, đường Cao Thắng, TP. Thanh Hóa, Tỉnh Thanh Hóa",
        "lon": 105.6747502,
        "lat": 18.6764415
      },
      {
        "id": "29",
        "address_name": "Tầng trệt TTTM Aeon Mall Bình Tân ‎ - Số 1 Đường số 17A, Bình Trị Đông B, Bình Tân, Hồ Chí Minh.",
        "lon": 106.61595,
        "lat": 10.74396
      },
      {
        "id": "30",
        "address_name": "Tầng 1 Siêu thị Big C, 222 Trần Duy Hưng, HN.",
        "lon": 105.7907438,
        "lat": 21.0072784
      },
      {
        "id": "31",
        "address_name": "Lô 1F-07 Tầng 1 TTTM Lotte mart Đà Nẵng, Đại Nam, Hòa Cường Bắc, Hải Châu, Đà Nẵng",
        "lon": 108.2207356,
        "lat": 16.0441205
      },
      {
        "id": "32",
        "address_name": "13 Lê Quý Đôn, Phường 6, Quận 3, HCM",
        "lon": 106.6898905,
        "lat": 10.7800183
      },
      {
        "id": "33",
        "address_name": "Tầng 4, Vincom Ngô Quyền, Đường Ngô Quyền, Phường An Hải Bắc, Quận Sơn Trà, TP. Đà Nẵng",
        "lon": 108.2281038,
        "lat": 16.0713137
      },
      {
        "id": "34",
        "address_name": "Lô 01-25, Tầng trệt TTTM SC Vivo City, số 1058 Nguyễn Văn Linh, Khu phố 1, Phường Tân Phong, Quận 7, TP.HCM",
        "lon": 106.7012088,
        "lat": 10.7302321
      },
      {
        "id": "35",
        "address_name": "Số 162 Nguyễn Khánh Toàn, P.Quan Hoa, Q.Cầu Giấy, Tp.Hà Nội",
        "lon": 105.7996181,
        "lat": 21.036869
      },
      {
        "id": "36",
        "address_name": "Số 60 Phố Giang Văn Minh, P.Đội Cấn, Q.Ba Đình, TP.Hà Nội,",
        "lon": 105.8251644,
        "lat": 21.0338985
      },
      {
        "id": "37",
        "address_name": "Tầng 7 TTTM Gigamall, Số 240-242 Phạm Văn Đồng, Phường Hiệp Bình Chánh, Thành phố Thủ Đức, Thành phố Hồ Chí Minh",
        "lon": 106.7186812,
        "lat": 10.8276153
      },
      {
        "id": "38",
        "address_name": "Lô 9+10, Thửa CUTM 5 – 10 Dự án Làng nghề Dệt lụa Vạn Phúc, Vạn Phúc, Hà Đông, Hà Nội",
        "lon": 105.7711624,
        "lat": 20.9817108
      },
      {
        "id": "39",
        "address_name": "Tòa nhà Quỳnh Minh, đường Bắc Sơn, Phường Hoàng Văn Thụ, Thành phố Thái Nguyên, Tỉnh Thái Nguyên",
        "lon": 105.7639332,
        "lat": 21.590947
      },
      {
        "id": "40",
        "address_name": "17 T5-T6, Hoàng Đạo Thúy, Trung Hòa, Thanh Xuân, Hà Nội",
        "lon": 105.8014798,
        "lat": 21.0068048
      },
      {
        "id": "41",
        "address_name": "Tòa nhà 17T4 Hoàng Đạo Thúy, Nhân Chính, Thanh Xuân, Hà Nội",
        "lon": 105.8012557,
        "lat": 21.0069612
      },
      {
        "id": "42",
        "address_name": "Số 323-7, Tầng 3, Tòa nhà Lotte Mall, số 272 đường Võ Chí Công, P.Phú Thượng, Q.Tây Hồ, TP.Hà Nội",
        "lon": 105.8096069,
        "lat": 21.0764493
      },
      {
        "id": "43",
        "address_name": "Số 2B Ngô Thì Nhậm, P.Hàng Bài, Q.Hoàn Kiếm, Tp.Hà Nội",
        "lon": 105.8505008,
        "lat": 21.0189979
      },
      {
        "id": "44",
        "address_name": "Tầng 1, Số 229 Tây Sơn, P.Ngã Tư Sở, Q.Đống Đa, TP.Hà Nội",
        "lon": 105.8210707,
        "lat": 21.0058225
      },
      {
        "id": "45",
        "address_name": "Số 419, Tầng 4, Tòa nhà Lotte Mall, số 272 đường Võ Chí Công, P.Phú Thượng, Q.Tây Hồ, TP.Hà Nội",
        "lon": 105.8096069,
        "lat": 21.0764493
      },
      {
        "id": "46",
        "address_name": "Số 83 Hào Nam, P.Ô Chợ Dừa, Q.Đống Đa, Tp.Hà Nội",
        "lon": 105.8239448,
        "lat": 21.0242999
      },
      {
        "id": "47",
        "address_name": "Lô L7, Ariyana Smart Condotel, Số 18 Trần Hưng Đạo, P.Lộc Thọ, Tp.Nha Trang, Tỉnh Khánh Hòa",
        "lon": 109.1919661,
        "lat": 12.2441224
      },
      {
        "id": "48",
        "address_name": "Số 146 Trần Phú, P.Mộ Lao, Q.Hà Đông, Tp.Hà Nội",
        "lon": 105.779411,
        "lat": 20.9760152
      },
      {
        "id": "49",
        "address_name": "Số 169 – 171 Phan Xích Long, P.2, Q.Phú Nhuận, TP.Hồ Chí Minh",
        "lon": 106.6857852,
        "lat": 10.798083
      },
      {
        "id": "50",
        "address_name": "VP3, Khu DTM Trung Hòa Nhân Chính, Hoàng Đạo Thúy, P.Nhân Chính, Q.Thanh Xuân, Tp.Hà Nội",
        "lon": 105.8004204,
        "lat": 21.0070507
      },
      {
        "id": "51",
        "address_name": "Lô L1, Ariyana Smart Condotel, số 18 Trần Hưng Đạo, P.Lộc Thọ, Tp.Nha Trang, Tỉnh Khánh Hòa",
        "lon": 109.1945167,
        "lat": 12.244321
      },
      {
        "id": "52",
        "address_name": "Số 135 Lương Định Của, P.Kim Liên, Q.Đống Đa, Tp.Hà Nội",
        "lon": 105.8353047,
        "lat": 21.0064587
      }
    ]
  },
  {
    "id": 44197,
    "title": "Thẻ quà tặng Shogun",
    "address": [
      {
        "id": "1",
        "address_name": "F6-Shop B 05-06, Tầng 6, Lotte Đào Tấn, 54 Liễu Giai, Quận Ba Đình, TP. Hà Nội",
        "lon": 105.8104069,
        "lat": 21.0320849
      },
      {
        "id": "2",
        "address_name": "Tầng 1, TTTM City Hub, số 1, đường Lê Hồng Phong, TP. Vinh, Tỉnh Nghệ An",
        "lon": 105,
        "lat": 18.6765451
      }
    ]
  },
  {
    "id": 44190,
    "title": "Thẻ quà tặng Manwah",
    "address": [
      {
        "id": "1",
        "address_name": "TTTM Giga Mall, 240 Phạm Văn Đồng, P. Hiệp Bình Chánh, Q. Thủ Đức, TPHCM",
        "lon": 106.71287,
        "lat": 10.82529
      },
      {
        "id": "2",
        "address_name": "Tầng 2, TTTM Estella, 88 Song Hành (Xa Lộ Hà Nội), Phường An Phú, Quận 2.",
        "lon": 106.7462822,
        "lat": 10.8020658
      },
      {
        "id": "3",
        "address_name": "Tầng 4, Vincom Ngô Quyền, Đường Ngô Quyền, Phường An Hải Bắc, Quận Sơn Trà, TP. Đà Nẵng",
        "lon": 108.2281038,
        "lat": 16.0713137
      }
    ]
  },
  {
    "id": 44195,
    "title": "Thẻ quà tặng Vuvuzela",
    "address": [
      {
        "id": "1",
        "address_name": "Lô TM3 Đường 3/2, KĐT Phú Cường, P. An Hòa, TP. Rạch Giá- Kiên Giang.",
        "lon": 105.0931186,
        "lat": 9.9708775
      }
    ]
  },
  {
    "id": 44180,
    "title": "Thẻ quà tặng Yutang",
    "address": [
      {
        "id": "1",
        "address_name": "2C Thái Phiên, Hai Bà Trưng, Hà Nội",
        "lon": 105.8491733,
        "lat": 21.010578
      }
    ]
  },
  {
    "id": 44194,
    "title": "Thẻ quà tặng 37th Street",
    "address": [
      {
        "id": "1",
        "address_name": "Lô 301- 2B TTTM Savico Long Biên, số 79 Nguyễn Văn Linh, P.Gia Thụy, Q.Long Biên, Tp.Hà Nội",
        "lon": 105.8913853,
        "lat": 21.0503254
      }
    ]
  },
  {
    "id": 44196,
    "title": "Thẻ quà tặng Sumo BBQ",
    "address": [
      {
        "id": "1",
        "address_name": "Lô T166, tầng 1 TTTM Aeon mall Hà Đông",
        "lon": 105.7549243,
        "lat": 21.0082432
      },
      {
        "id": "2",
        "address_name": "Tầng 5, Tầng 5 Vạn Hạnh Mall, 11 Sư Vạn Hạnh, P. 12, Quận 10, TP. HCM",
        "lon": 106.6676191,
        "lat": 10.7706865
      }
    ]
  },
  {
    "id": "44192",
    "title": "Thẻ quà tặng Ashima",
    "address": [
      {
        "id": "1",
        "address_name": "35A Nguyễn Đình Chiểu, Phường Đa Kao, Quận 1, TP. Hồ Chí Minh",
        "lon": 106.69715,
        "lat": 10.78569
      }
    ]
  }
]