[
  {
    "id": 1511,
    "title": "WinMart/ WinMart+/WiN",
    "address": [
      {
        "id": 185088,
        "address_name": "Số 31 phố Mạc Thị Bưởi, P.Vĩnh Tuy, Q.Hai Bà Trưng, TP.Hà Nội",
        "lon": 105.869235992432,
        "lat": 21.0005129007032
      },
      {
        "id": 185344,
        "address_name": "Tầng 1 Khu nhà ở cao cấp BMM, P.Phúc La, Q.Hà Đông, TP.Hà Nội",
        "lon": 105.800995,
        "lat": 21.009186
      },
      {
        "id": 185600,
        "address_name": "14/6 Hoàng Dư Khương, P.12, Q.10, TP.Hồ Chí Minh",
        "lon": 106.672706,
        "lat": 10.775756
      },
      {
        "id": 185856,
        "address_name": "TT18-50 KĐTM Văn Phú, đường Lê Trọng Tấn, P.Phú La, Q.Hà Đông, TP.Hà Nội",
        "lon": 105.767671465874,
        "lat": 20.959500960502
      },
      {
        "id": 187136,
        "address_name": "2B Lương Thế Vinh, P.9, TP.Vũng Tàu, T.Bà Rịa - Vũng Tàu",
        "lon": 107.085102,
        "lat": 10.373459
      },
      {
        "id": 187392,
        "address_name": "213 Gò Xoài, P. Bình Hưng Hòa A, Q.Bình Tân, TP.Hồ Chí Minh",
        "lon": 106.60463483,
        "lat": 10.78802109
      },
      {
        "id": 187648,
        "address_name": "113 – 113A Tam Châu, P.Tam Phú, TP.Thủ Đức, TP.Hồ Chí Minh",
        "lon": 106.744794,
        "lat": 10.86746
      },
      {
        "id": 187904,
        "address_name": "CS3-CS4, Tầng 1, Block C, Prosper Plaza, 22/14 Phan Văn Hớn, P.Tân Thới Nhất, Q.12, TP.Hồ Chí Minh",
        "lon": 106.618437538455,
        "lat": 10.830165377192
      },
      {
        "id": 188160,
        "address_name": "Thôn 3, X.Tú Sơn, H.Kiến Thuỵ, TP.Hải Phòng",
        "lon": 106.727081537247,
        "lat": 20.7166132476937
      },
      {
        "id": 188416,
        "address_name": "120 Trần Quốc Tuấn, P.2, TP.Trà Vinh, T.Trà Vinh",
        "lon": 106.338668,
        "lat": 9.934541
      },
      {
        "id": 188672,
        "address_name": "Thôn Đại Nghiệp, X.Tân Dân, H.Phú Xuyên, TP.Hà Nội",
        "lon": 105.913962,
        "lat": 20.738537
      },
      {
        "id": 188928,
        "address_name": "139 Nguyễn Trọng Tuyển, P.08, Q.Phú Nhuận, TP.Hồ Chí Minh",
        "lon": 106.677244968465,
        "lat": 10.7973918199335
      },
      {
        "id": 189184,
        "address_name": "Số 151 Phong Định Cảng, P.Trường Thi, TP.Vinh, T.Nghệ An",
        "lon": 105.699565,
        "lat": 18.672237
      },
      {
        "id": 189440,
        "address_name": "Thôn Dy Lộc, X.Quảng Tùng, H.Quảng Trạch, T.Quảng Bình",
        "lon": 106.437169611454,
        "lat": 17.8675738346175
      },
      {
        "id": 196096,
        "address_name": "133 Nguyễn Sinh Cung, P.Vỹ Dạ, TP.Huế, T.Thừa Thiên Huế",
        "lon": 107.596026,
        "lat": 16.48337
      },
      {
        "id": 185089,
        "address_name": "Số 19 B đường Tô Ngọc Vân, P.Quảng An, Q.Tây Hồ, TP.Hà Nội"
      },
      {
        "id": 185345,
        "address_name": "Ô dịch vụ số 1, Tòa nhà T1 - Dự án Tổ hợp chung cư và dịch vụ hỗn hợp Thăng Long Victory tại ô đất quy hoạch ký hiệu HH1, Khu đô thị mới Nam An Khánh, X.An Khánh, H.Hoài Đức, TP.Hà Nội"
      },
      {
        "id": 185601,
        "address_name": "117 Dương Quảng Hàm, P.5, Q.Gò Vấp, TP.Hồ Chí Minh"
      },
      {
        "id": 185857,
        "address_name": "Đường Mới Tứ Hiệp, Ngũ Hiệp - Tự Khoát, X.Ngũ Hiệp, H.Thanh Trì, TP.Hà Nội",
        "lon": 105.851753,
        "lat": 20.924998
      },
      {
        "id": 187137,
        "address_name": "290 Nguyễn Đức Cảnh, P.Quang Hanh, TP.Cẩm Phả, T.Quảng Ninh",
        "lon": 107.242274880409,
        "lat": 21.0077293961059
      },
      {
        "id": 187393,
        "address_name": "Số 640 Đường Trần Hưng Đạo, Thôn Liên Hải, X.Quỳnh Liên, Thị X.Hoàng Mai, T.Nghệ An",
        "lon": 105.720628201962,
        "lat": 19.2030921441056
      },
      {
        "id": 187649,
        "address_name": "Khu 7, Phố Yên, X.Tiền Phong, H.Mê Linh, TP.Hà Nội",
        "lon": 105.761619,
        "lat": 21.156108
      },
      {
        "id": 187905,
        "address_name": "300 Giải Phóng, X.Mỹ Xá, TP.Nam Định, T.Nam Định",
        "lon": 106.159094,
        "lat": 20.425844
      },
      {
        "id": 188161,
        "address_name": "67 Hoàng Quốc Việt, P.Ngọc Sơn, Q.Kiến An, TP.Hải Phòng",
        "lon": 106.623463,
        "lat": 20.813697
      },
      {
        "id": 188417,
        "address_name": "31A-33A Gò Dầu, P.Tân Quý, Q.Tân Phú, TP.Hồ Chí Minh",
        "lon": 106.628068,
        "lat": 10.795673
      },
      {
        "id": 188673,
        "address_name": "Số 55 Bùi Huy Bích, P.Hoàng Liệt, Q.Hoàng Mai, TP.Hà Nội",
        "lon": 105.844931,
        "lat": 20.9679078
      },
      {
        "id": 188929,
        "address_name": "151 Lý Thánh Tông, P.Tân Thới Hoà, Q.Tân Phú, TP.Hồ Chí Minh",
        "lon": 106.625649,
        "lat": 10.767024
      },
      {
        "id": 189185,
        "address_name": "Số 105 Trần Phú, Tổ 7, P.Bắc Sơn, TP.Tam Điệp, T.Ninh Bình",
        "lon": 105.918103,
        "lat": 20.1602854
      },
      {
        "id": 189441,
        "address_name": "Tổ dân phố Liên Hải, P.Hải Thượng, Thị X.Nghi Sơn, T.Thanh Hoá",
        "lon": 105.802218,
        "lat": 19.333807
      },
      {
        "id": 196097,
        "address_name": "149 Trần Thị Trọng, P.15, Q.Tân Bình, TP.HCM",
        "lon": 106.634403169155,
        "lat": 10.8261850965505
      },
      {
        "id": 185090,
        "address_name": "Số 6-8 phố Vọng, P.Phương Mai, Q.Đống Đa, TP.Hà Nội",
        "lon": 105.841611921787,
        "lat": 20.9996339768352
      },
      {
        "id": 185346,
        "address_name": "Số 1206 Lê Đức Thọ, P.13, Q.Gò Vấp, TP.Hồ Chí Minh",
        "lon": 106.6605,
        "lat": 10.852553
      },
      {
        "id": 185602,
        "address_name": "Ô 23, DC 01, Khu phố 4, P.An Phú, TP.Thuận An, T.Bình Dương",
        "lon": 106.730886304378,
        "lat": 10.9479610602381
      },
      {
        "id": 185858,
        "address_name": "74 Hàm Nghi, P.Thạc Gián, Q.Thanh Khê, TP.Đà Nẵng",
        "lon": 108.210664,
        "lat": 16.062658
      },
      {
        "id": 187138,
        "address_name": "Số 197 Khu QH Xóm Bãi 2, X.Tiền An, Thị X.Quảng Yên, T.Quảng Ninh",
        "lon": 106.66504,
        "lat": 11.122975
      },
      {
        "id": 187394,
        "address_name": "SI.18, Tầng trệt, Block Uranus, Khu dân cư và thương mại hỗn hợp Khải Vy, số 4 Đào Trí, P. Phú Thuận, Q.7, TP.Hồ Chí Minh"
      },
      {
        "id": 187650,
        "address_name": "Lô 05, tầng 1, tòa N01, New Horizon city, 87 Lĩnh Nam, P.Mai Động, Q.Hoàng Mai, TP.Hà Nội",
        "lon": 105.420417,
        "lat": 21.429134
      },
      {
        "id": 187906,
        "address_name": "314 Trần Cung, P.Cổ Nhuế 1, Q.Bắc Từ Liêm, TP.Hà Nội",
        "lon": 105.791358,
        "lat": 21.049379
      },
      {
        "id": 188162,
        "address_name": "Tổ 70, khu 7, P.Hà Khẩu, TP.Hạ Long, T.Quảng Ninh",
        "lon": 106.999221146107,
        "lat": 20.9808673420809
      },
      {
        "id": 188418,
        "address_name": "Thôn Thiết Úng, X.Vân Hà, H.Đông Anh, TP.Hà Nội",
        "lon": 105.911765,
        "lat": 21.122671
      },
      {
        "id": 188674,
        "address_name": "số 218 Trần Nhân Tông, Khu Yên Lâm 4, P.Đức Chính, Thị X.Đông Triều, T.Quảng Ninh",
        "lon": 106.518746316433,
        "lat": 21.0898956720156
      },
      {
        "id": 188930,
        "address_name": "Số 191B Phố Ba Mỏ, TT.Thanh Sơn, H.Thanh Sơn, T.Phú Thọ"
      },
      {
        "id": 189186,
        "address_name": "Thôn Trung Hòa, X.Trung Hòa, H.Yên Mỹ, T.Hưng Yên",
        "lon": 106.061284840107,
        "lat": 20.8652706935412
      },
      {
        "id": 189442,
        "address_name": "Ngã tư TT.Đình Cả, TT.Đình Cả, H.Võ Nhai, T.Thái Nguyên",
        "lon": 106.072665,
        "lat": 21.7504
      },
      {
        "id": 196098,
        "address_name": "Tổ 8, TT.Đông Hưng, H.Đông Hưng, T.Thái Bình",
        "lon": 106.351523,
        "lat": 20.5562928
      },
      {
        "id": 185091,
        "address_name": "Số 11 phố Ngô Sỹ Liên, P.Văn Miếu, Q.Đống Đa, TP.Hà Nội",
        "lon": 105.839191228151,
        "lat": 21.0266854314295
      },
      {
        "id": 185347,
        "address_name": "Số 04-A13 Đường D7, khu phố 6, P.Phước Long B, TP.Thủ Đức, TP.Hồ Chí Minh",
        "lon": 106.785613,
        "lat": 10.811056
      },
      {
        "id": 185603,
        "address_name": "85A Quốc Lộ 13 cũ, KP 3, P.Hiệp Bình Phước, TP.Thủ Đức, TP.Hồ Chí Minh"
      },
      {
        "id": 185859,
        "address_name": "147/4 Cách Mạng Tháng 8, P.Lái Thiêu, TP.Thuận An, T.Bình Dương",
        "lon": 106.699018,
        "lat": 10.900224
      },
      {
        "id": 187139,
        "address_name": "220/110 Nguyễn Văn Khối, P.9, Q.Gò Vấp, TP.Hồ Chí Minh"
      },
      {
        "id": 187395,
        "address_name": "Số 71 Ngách 116 Ngõ Trại Cá, P.Trương Định, Q.Hai Bà Trưng, TP.Hà Nội",
        "lon": 105.8463,
        "lat": 20.9941
      },
      {
        "id": 187651,
        "address_name": "42/1 đường TL16, P.Thạnh Lộc, Q.12, TP.Hồ Chí Minh",
        "lon": 106.683724,
        "lat": 10.864748
      },
      {
        "id": 187907,
        "address_name": "0.01, tầng 1, Chung cư CH1, Khu dân cư CityLand, Đường số 10, P.10, Q.Gò Vấp, TP.Hồ Chí Minh",
        "lon": 106.670174,
        "lat": 10.833598
      },
      {
        "id": 188163,
        "address_name": "248 Chợ Chiều Chuông, X.Phương Trung, H.Thanh Oai, TP.Hà Nội",
        "lon": 105.769519,
        "lat": 20.827691
      },
      {
        "id": 188419,
        "address_name": "15 Lý Bôn, P.Cẩm Đông, TP.Cẩm Phả, T.Quảng Ninh",
        "lon": 107.293873,
        "lat": 21.010156
      },
      {
        "id": 188675,
        "address_name": "Thôn Thắng Trí, X.Minh Trí, H.Sóc Sơn, TP.Hà Nội",
        "lon": 105.750707834959,
        "lat": 21.2596187129926
      },
      {
        "id": 188931,
        "address_name": "102E Lê Thanh Nghị, P.Bách Khoa, Q.Hai Bà Trưng, TP.Hà Nội",
        "lon": 105.846455991268,
        "lat": 21.0021129795851
      },
      {
        "id": 189187,
        "address_name": "Căn hộ C00.01, tầng 1 (tầng trệt), Khối C thuộc dự án HOF-HQC Hồ Học Lãm, số 35 Hồ Học Lãm, P. An Lạc, Q.Bình Tân, TP Hồ Chí Minh"
      },
      {
        "id": 189443,
        "address_name": "197 Phan Đăng Lưu, P.Khuê Trung, Q.Cẩm Lệ, TP.Đà Nẵng",
        "lon": 108.212129473686,
        "lat": 16.0362705324214
      },
      {
        "id": 196099,
        "address_name": "Khối Trung Sơn, TT.Kim Sơn, H.Quế Phong, T.Nghệ An",
        "lon": 104.920628,
        "lat": 19.603432
      },
      {
        "id": 185092,
        "address_name": "Số 354-356 đường Mỹ Đình, P.Mỹ Đình 1, Q.Nam Từ Liêm, TP.Hà Nội",
        "lon": 105.774551331997,
        "lat": 21.0224267301918
      },
      {
        "id": 185348,
        "address_name": "53 Vườn Lài, P.Phú Thọ Hoà, Q.Tân Phú, TP.Hồ Chí Minh",
        "lon": 106.634258329868,
        "lat": 10.7873847513619
      },
      {
        "id": 185604,
        "address_name": "207A Ấp Bình Đường 3, P.An Bình, TP.Dĩ An, T.Bình Dương",
        "lon": 106.750444,
        "lat": 10.874477
      },
      {
        "id": 185860,
        "address_name": "58A Nguyễn Khánh Toàn, P.Quan Hoa, Q.Cầu Giấy, TP.Hà Nội",
        "lon": 105.8033,
        "lat": 21.0388
      },
      {
        "id": 187140,
        "address_name": "106 Quốc Lộ 9B, P.1, TP.Đông Hà, T.Quảng Trị",
        "lon": 107.095434644222,
        "lat": 16.8115480555035
      },
      {
        "id": 187396,
        "address_name": "171 Nguyễn Lương Bằng, P.Hòa Khánh Bắc, Q.Liên Chiểu, TP.Đà Nẵng",
        "lon": 108.147529,
        "lat": 16.078621
      },
      {
        "id": 187652,
        "address_name": "372A Nơ Trang Long, P.13, Q.Bình Thạnh, TP.Hồ Chí Minh",
        "lon": 106.700886413455,
        "lat": 10.8189448275994
      },
      {
        "id": 187908,
        "address_name": "68 đường 2 tháng 9, P.1, TP.Vĩnh Long, T.Vĩnh Long",
        "lon": 105.974271297455,
        "lat": 10.2505218823742
      },
      {
        "id": 188164,
        "address_name": "120 QL21, X.Hồng Dương, H.Thanh Oai, TP.Hà Nội",
        "lon": 105.809275209904,
        "lat": 20.803412246159
      },
      {
        "id": 188420,
        "address_name": "Số nhà 105 Phố Thành Công, P.Thành Công, Q.Ba Đình, TP.Hà Nội",
        "lon": 105.814484,
        "lat": 21.020696
      },
      {
        "id": 188676,
        "address_name": "Tầng trệt (cửa hàng), Khối A, Số 16 Âu Cơ, P.Tân Sơn Nhì, Q.Tân Phú, TP.Hồ Chí Minh",
        "lon": 106.637002,
        "lat": 10.800303
      },
      {
        "id": 188932,
        "address_name": "Số nhà 545, Tiểu khu 19, TT.Hát Lót, H.Mai Sơn, T.Sơn La",
        "lon": 104.1079,
        "lat": 21.1992
      },
      {
        "id": 189188,
        "address_name": "Số 165 Đường Nguyễn Trãi, Khối Kim Tân, P.Hòa Hiếu, Thị X.Thái Hoà, T.Nghệ An",
        "lon": 105.431282222271,
        "lat": 19.3224983678154
      },
      {
        "id": 189444,
        "address_name": "Số 60 Lê Trọng Tấn, P.Khương Mai, Q.Thanh Xuân, TP.Hà Nội",
        "lon": 105.827818,
        "lat": 20.999415
      },
      {
        "id": 196100,
        "address_name": "Số 85 Đường Trần Hưng Đạo, Khối 11, P.Đội Cung, TP.Vinh, T.Nghệ An",
        "lon": 105.664472,
        "lat": 18.670211
      },
      {
        "id": 185093,
        "address_name": "Số 123 phố Trịnh Công Sơn, P.Nhật Tân, Q.Tây Hồ, TP.Hà Nội",
        "lon": 105.818603932858,
        "lat": 21.0786963538248
      },
      {
        "id": 185349,
        "address_name": "số 191 Xuân Đỉnh, P.Xuân Đỉnh, Q.Bắc Từ Liêm, TP.Hà Nội",
        "lon": 105.792897,
        "lat": 21.076478
      },
      {
        "id": 185605,
        "address_name": "357 Ông Ích Khiêm, P.Hải Châu II, Q.Hải Châu, TP.Đà Nẵng",
        "lon": 108.214812,
        "lat": 16.065073
      },
      {
        "id": 185861,
        "address_name": "400 Phố Mới, P.Đồng Nguyên, TP.Từ Sơn, T.Bắc Ninh",
        "lon": 105.973675847054,
        "lat": 21.1260130366753
      },
      {
        "id": 187141,
        "address_name": "87 Hùng Vương, TT.Diên Sanh, H.Hải Lăng, T.Quảng Trị",
        "lon": 107.2507,
        "lat": 16.6972
      },
      {
        "id": 187397,
        "address_name": "14 Trần Đình Nam, Tổ 46, P.Hòa An, Q.Cẩm Lệ, TP.Đà Nẵng",
        "lon": 108.1793474104,
        "lat": 16.0508313583
      },
      {
        "id": 187653,
        "address_name": "290 Mai Đăng Chơn, P.Hoà Quý, Q.Ngũ Hành Sơn, TP.Đà Nẵng",
        "lon": 108.24046,
        "lat": 15.985827
      },
      {
        "id": 187909,
        "address_name": "01.04 tầng 1, chung cư Phương Việt, 1002 Tạ Quang Bửu, P.6, Q.8, TP.Hồ Chí Minh"
      },
      {
        "id": 188165,
        "address_name": "28-29 Hùng Vương, P.5, TP.Trà Vinh, T.Trà Vinh",
        "lon": 106.348167,
        "lat": 9.936827
      },
      {
        "id": 188421,
        "address_name": "Số nhà 106 Dốc chợ Thành Công, P.Thành Công, Q.Ba Đình, TP.Hà Nội",
        "lon": 105.814501,
        "lat": 21.020698
      },
      {
        "id": 188677,
        "address_name": "174A Trịnh Đình Trọng, P.Phú Trung, Q.Tân Phú, TP.Hồ Chí Minh"
      },
      {
        "id": 188933,
        "address_name": "Thôn Quán Tranh, X.Đồng Tâm, H.Ninh Giang, T.Hải Dương",
        "lon": 106.389415562153,
        "lat": 20.7368100999384
      },
      {
        "id": 189189,
        "address_name": "Xóm Bình Thành, X.Nghĩa Bình, H.Nghĩa Đàn, T.Nghệ An",
        "lon": 105.537972450256,
        "lat": 19.3096448192153
      },
      {
        "id": 189445,
        "address_name": "Số 64 Đường Phạm Văn Đồng, TT.Cổ Phúc, H.Trấn Yên, T.Yên Bái",
        "lon": 104.832792878151,
        "lat": 21.7499037061969
      },
      {
        "id": 196101,
        "address_name": "Xóm 5, X.Cồn Thoi, H.Kim Sơn, T.Ninh Bình",
        "lon": 106.072784,
        "lat": 19.995821
      },
      {
        "id": 185094,
        "address_name": "Số 158 phố Thái Thịnh, P.Láng Hạ, Q.Đống Đa, TP.Hà Nội",
        "lon": 105.817093,
        "lat": 21.012394
      },
      {
        "id": 185350,
        "address_name": "Số 140-142 Nguyễn Sơn, P.Bồ Đề, Q.Long Biên, TP.Hà Nội",
        "lon": 105.878622,
        "lat": 21.046531
      },
      {
        "id": 185606,
        "address_name": "336/55 Nguyễn Văn Luông, P.12, Q.6, TP.Hồ Chí Minh",
        "lon": 106.637432,
        "lat": 10.750816
      },
      {
        "id": 185862,
        "address_name": "340 Bùi Trọng Nghĩa, KP3, P.Trảng Dài, TP.Biên Hoà, T.Đồng Nai",
        "lon": 106.856936757267,
        "lat": 10.9925707184122
      },
      {
        "id": 187142,
        "address_name": "321 Đường 2/4, KP.1, TT.Cam Lộ, H.Cam Lộ, T.Quảng Trị",
        "lon": 106.992416381836,
        "lat": 16.8082025378054
      },
      {
        "id": 187398,
        "address_name": "Số 174 Thôn Thượng, X.Cự Khê, H.Thanh Oai, TP.Hà Nội",
        "lon": 105.7803,
        "lat": 20.9221
      },
      {
        "id": 187654,
        "address_name": "17 Nguyễn Tri Phương, P.Cẩm Nam, TP.Hội An, T.Quảng Nam",
        "lon": 108.333111852407,
        "lat": 15.8736370663608
      },
      {
        "id": 187910,
        "address_name": "33/15D Phạm Thái Bường, P.4, TP.Vĩnh Long, T.Vĩnh Long",
        "lon": 105.982361,
        "lat": 10.238404
      },
      {
        "id": 188166,
        "address_name": "89 Bùi Thị Xuân, P.2, TP.Đà Lạt, T.Lâm Đồng",
        "lon": 108.441979,
        "lat": 11.954281
      },
      {
        "id": 188422,
        "address_name": "Lô 01-05 MBQH số 1087, P.Ngọc Trạo, TP.Thanh Hoá, T.Thanh Hoá",
        "lon": 105.898965597153,
        "lat": 21.0269082525421
      },
      {
        "id": 188678,
        "address_name": "158 Nguyễn Văn Trỗi, Khu Quyết Thắng, TT.An Lão, H.An Lão, TP.Hải Phòng",
        "lon": 106.55604,
        "lat": 20.826201
      },
      {
        "id": 188934,
        "address_name": "01SH02- 02SH02, Tòa S3.03 – (Z38M.2) tại ô đất (F4-CH03) thuộc Dự án khu Đô thị mới Tây Mỗ, Đại Mỗ - Vinhomes Park, P.Tây Mỗ, Q.Nam Từ Liêm, TP.Hà Nội"
      },
      {
        "id": 189190,
        "address_name": "Số 136 Yên Phúc, P.Phúc La, Q.Hà Đông, TP.Hà Nội"
      },
      {
        "id": 189446,
        "address_name": "45C Phan Đình Phùng, P.Tây Sơn, TP.Pleiku, T.Gia Lai",
        "lon": 108.004212,
        "lat": 13.985332
      },
      {
        "id": 196102,
        "address_name": "Căn hộ số 9T (tầng 1 + 2), Chung cư CT3, Khu đô thị Vĩnh Điềm Trung, X. Vĩnh Hiệp, TP.Nha Trang, T.Khánh Hòa",
        "lon": 109.170123338699,
        "lat": 12.2558209609346
      },
      {
        "id": 185095,
        "address_name": "Số 101 phố Hương Viên, P.Đống Mác, Q.Hai Bà Trưng, TP.Hà Nội",
        "lon": 105.856581330299,
        "lat": 21.0113149781176
      },
      {
        "id": 185351,
        "address_name": "Lô số 2-628, đường Hoàng Hoa Thám, P.Bưởi, Q.Tây Hồ, TP.Hà Nội",
        "lon": 105.806865,
        "lat": 21.048474
      },
      {
        "id": 185607,
        "address_name": "47 Châu Thượng Văn, P.Hoà Cường Bắc, Q.Hải Châu, TP.Đà Nẵng",
        "lon": 108.220552,
        "lat": 16.043941
      },
      {
        "id": 185863,
        "address_name": "217A Long Phước, Ấp Long Thuận, P.Long Phước, TP.Thủ Đức, TP.Hồ Chí Minh"
      },
      {
        "id": 187143,
        "address_name": "Quốc Lộ 9, Thôn Tân Hữu, X.Tân Liên, H.Hướng Hoá, T.Quảng Trị",
        "lon": 106.585922241211,
        "lat": 16.9393470394481
      },
      {
        "id": 187399,
        "address_name": "SL20 – Lô M2, Dự án Xây dựng nhà ở cho cán bộ nhân viên Viện Bỏng Lê Hữu Trác – Học viện Quân Y, X.Tân Triều, H.Thanh Trì, TP.Hà Nội"
      },
      {
        "id": 187655,
        "address_name": "153 - 155 Thanh Am, P.Thượng Thanh, Q.Long Biên, TP.Hà Nội",
        "lon": 105.89692980051,
        "lat": 21.0679517232377
      },
      {
        "id": 187911,
        "address_name": "01 Mậu Thân, P.3, TP.Vĩnh Long, T.Vĩnh Long",
        "lon": 105.971299409866,
        "lat": 10.2479062276818
      },
      {
        "id": 188167,
        "address_name": "85 Mê Linh, P.9, TP.Đà Lạt, T.Lâm Đồng",
        "lon": 108.47234800458,
        "lat": 11.9620597857371
      },
      {
        "id": 188423,
        "address_name": "Thôn 4, X.Cát Quế, H.Hoài Đức, TP.Hà Nội",
        "lon": 105.673562,
        "lat": 21.053557
      },
      {
        "id": 188679,
        "address_name": "Số nhà 211 Thôn 3 Giang Cao, X.Bát Tràng, H.Gia Lâm, TP.Hà Nội",
        "lon": 105.917799,
        "lat": 20.981073
      },
      {
        "id": 188935,
        "address_name": "200 đường D1, Khu dân cư Phú Hòa 1, Khu 07, P.Phú Hòa, TP.Thủ Dầu Một, T.Bình Dương"
      },
      {
        "id": 189191,
        "address_name": "Số 610 Đường Thống Nhất, P.Tân Thịnh, TP.Thái Nguyên, T.Thái Nguyên",
        "lon": 105.824929,
        "lat": 21.568208
      },
      {
        "id": 189447,
        "address_name": "289/4 Nguyễn Ái Quốc, P.Tân Biên, TP.Biên Hoà, T.Đồng Nai",
        "lon": 106.891951560974,
        "lat": 10.9803091559862
      },
      {
        "id": 196103,
        "address_name": "Căn H201S26 và H202S26 Tòa H2, Haven Park Residences, KĐT Ecopark, X.Phụng Công, H.Văn Giang, T.Hưng Yên"
      },
      {
        "id": 185096,
        "address_name": "Số 33 đường Lương Khánh Thiện, tổ 62, P.Tương Mai, Q.Hoàng Mai, TP.Hà Nội",
        "lon": 105.851156,
        "lat": 20.98616
      },
      {
        "id": 185352,
        "address_name": "Số 618 Hà Lầm, P.Hà Lầm, TP.Hạ Long, T.Quảng Ninh",
        "lon": 107.119979,
        "lat": 20.960806
      },
      {
        "id": 185608,
        "address_name": "135B đường số 20, P.5, Q.Gò Vấp, TP.Hồ Chí Minh",
        "lon": 106.68656,
        "lat": 10.834174
      },
      {
        "id": 185864,
        "address_name": "C3-3A -05 KDC Him Lam, Phú Đông, P.An Bình, TP.Dĩ An, T.Bình Dương",
        "lon": 106.756493,
        "lat": 10.866635
      },
      {
        "id": 187144,
        "address_name": "101 Hai Bà Trưng, Khối phố 6, P.3, Thị X.Quảng Trị, T.Quảng Trị",
        "lon": 107.191141483784,
        "lat": 16.7476275503615
      },
      {
        "id": 187400,
        "address_name": "92 Xô Viết Nghệ Tĩnh, P. Tân An, Q.Ninh Kiều, TP.Cần Thơ",
        "lon": 105.783457607031,
        "lat": 10.0388927098284
      },
      {
        "id": 187656,
        "address_name": "Tầng 1, Eurowindow Multicomplex, 27 Trần Duy Hưng, P.Trung Hoà, Q.Cầu Giấy, TP.Hà Nội",
        "lon": 105.803272,
        "lat": 21.013471
      },
      {
        "id": 187912,
        "address_name": "80 Tôn Đức Thắng, P.8, TP.Sóc Trăng, T.Sóc Trăng",
        "lon": 105.978211,
        "lat": 9.61098
      },
      {
        "id": 188168,
        "address_name": "Thửa đất số 104, Tờ bản đồ số B1-95, Khu đô thị sinh thái ven sông Hòa Xuân, P.Hoà Xuân, Q.Cẩm Lệ, TP.Đà Nẵng"
      },
      {
        "id": 188424,
        "address_name": "35 Đồng Quế, P.Nam Hà, TP.Hà Tĩnh, T.Hà Tĩnh",
        "lon": 105.903662,
        "lat": 18.336345
      },
      {
        "id": 188680,
        "address_name": "Thôn Nội Phật, X.Mai Đình, H.Sóc Sơn, TP.Hà Nội",
        "lon": 105.850597,
        "lat": 21.222069
      },
      {
        "id": 188936,
        "address_name": "95/31 Nguyễn Thông, P.An Thới, Q.Bình Thuỷ, TP.Cần Thơ",
        "lon": 105.757044553757,
        "lat": 10.0677677022574
      },
      {
        "id": 189192,
        "address_name": "Số 53 Trần Phú, P.Ba Đình, Thị X.Bỉm Sơn, T.Thanh Hoá",
        "lon": 105.859783,
        "lat": 20.084048
      },
      {
        "id": 189448,
        "address_name": "797 Bình Giã, P.10, TP.Vũng Tàu, T.Bà Rịa - Vũng Tàu",
        "lon": 107.115917,
        "lat": 10.384733
      },
      {
        "id": 196104,
        "address_name": "Khu Chợ Đầm, X.Thái Hòa, H.Lập Thạch, T.Vĩnh Phúc",
        "lon": 105.732995,
        "lat": 21.281087
      },
      {
        "id": 185097,
        "address_name": "Số 17 ngõ 77 phố Đặng Xuân Bảng, P.Đại Kim, Q.Hoàng Mai, TP.Hà Nội",
        "lon": 105.828742682934,
        "lat": 20.972091741534
      },
      {
        "id": 185353,
        "address_name": "Số 126 Văn Tiến Dũng, Tổ Dân Phố 53, P.Hoà Xuân, Q.Cẩm Lệ, TP.Đà Nẵng"
      },
      {
        "id": 185609,
        "address_name": "60 Lê Văn Chí, P.Linh Trung, TP.Thủ Đức, TP.Hồ Chí Minh",
        "lon": 106.779013,
        "lat": 10.860741
      },
      {
        "id": 185865,
        "address_name": "Tổ 26A, Hai Bà Trưng, P.Thọ Sơn, TP.Việt Trì, T.Phú Thọ",
        "lon": 105.413357019424,
        "lat": 21.3042386749373
      },
      {
        "id": 187145,
        "address_name": "08-08A Trần Hưng Đạo, Khu phố 3, P.3, Thị X.Quảng Trị, T.Quảng Trị",
        "lon": 107.185591,
        "lat": 16.740748
      },
      {
        "id": 187401,
        "address_name": "1.01, Tầng 1, Dự án Khối căn hộ thuộc cụm công trình Cao ốc văn phòng kết hợp thương mại, dịch vụ và nhà ở, Số 152 Điện Biên Phủ, P. 25, Q.Bình Thạnh, TP.Hồ Chí Minh"
      },
      {
        "id": 187657,
        "address_name": "57 Hùng Vương, P.Cẩm Phô, TP.Hội An, T.Quảng Nam",
        "lon": 108.320554,
        "lat": 15.879324
      },
      {
        "id": 187913,
        "address_name": "61 Bến Bắc, P.Tam Thanh, TP.Lạng Sơn, T.Lạng Sơn",
        "lon": 106.741321384907,
        "lat": 21.847799335916
      },
      {
        "id": 188169,
        "address_name": "159-161 Quách Thị Trang, P.Hoà Xuân, Q.Cẩm Lệ, TP.Đà Nẵng",
        "lon": 108.219414,
        "lat": 16.0002317
      },
      {
        "id": 188425,
        "address_name": "Tầng 1, tòa nhà C2 thuộc Dự án Khu nhà ở Xuân Đỉnh, P.Xuân Đỉnh, Q.Bắc Từ Liêm, TP.Hà Nội",
        "lon": 105.782305,
        "lat": 21.086678
      },
      {
        "id": 188681,
        "address_name": "Đường Đinh Tiên Hoàng, số 25 tổ 10 phố Tân An, P.Hùng Vương, Thị X.Phú Thọ, T.Phú Thọ"
      },
      {
        "id": 188937,
        "address_name": "58 Hà Tông Quyền, P.Khuê Trung, Q.Cẩm Lệ, TP.Đà Nẵng",
        "lon": 108.206242,
        "lat": 16.021971
      },
      {
        "id": 189193,
        "address_name": "SHA-110 Tầng 1 Tòa nhà A2 Dự án Cụm công trình nhà ở IA20 Khu đô thị Nam Thăng Long, P.Đông Ngạc, Q.Bắc Từ Liêm, TP.Hà Nội"
      },
      {
        "id": 189449,
        "address_name": "378 Lê Thị Hồng Gấm, P.6, TP.Mỹ Tho, T.Tiền Giang",
        "lon": 106.339358,
        "lat": 10.349434
      },
      {
        "id": 196105,
        "address_name": "Ô đất số 44, khu giãn dân Phú Đô, P.Phú Đô, Quận Nam Từ Liêm, TP.Hà Nội",
        "lon": 105.792320966721,
        "lat": 20.9938018979101
      },
      {
        "id": 185098,
        "address_name": "Số 51 ngõ 53 đường Vũ Xuân Thiều, P.Sài Đồng, Q.Long Biên, TP.Hà Nội",
        "lon": 105.9138,
        "lat": 21.0323
      },
      {
        "id": 185354,
        "address_name": "54B Nguyễn Thị Huỳnh, P.11, Q.Phú Nhuận, TP.Hồ Chí Minh",
        "lon": 106.674297,
        "lat": 10.794851
      },
      {
        "id": 185610,
        "address_name": "Kiot 60-62, Tầng 1, Toà nhà B1.4 - HH01C – Khu đô thị Thanh Hà – Cienco5, X.Cự Khê, H.Thanh Oai, TP.Hà Nội"
      },
      {
        "id": 185866,
        "address_name": "14A ĐT 743, KP Tân An, P.Tân Đông Hiệp, TP.Dĩ An, T.Bình Dương",
        "lon": 106.788741217554,
        "lat": 10.9083927119407
      },
      {
        "id": 187146,
        "address_name": "Số 242 Đường Giáp Hải, P.Dĩnh Kế, TP.Bắc Giang, T.Bắc Giang",
        "lon": 106.217625439167,
        "lat": 21.2870401113798
      },
      {
        "id": 187402,
        "address_name": "Khu Trung Tâm, Thôn Phú Cường, X.Lãng Công, H.Sông Lô",
        "lon": 105.380788,
        "lat": 21.467861
      },
      {
        "id": 187658,
        "address_name": "43 Hồ Quý Ly, P.Thanh Khê Tây, Q.Thanh Khê, TP.Đà Nẵng",
        "lon": 108.171928524971,
        "lat": 16.0754343256428
      },
      {
        "id": 187914,
        "address_name": "5 Máng Nước, X.An Đồng, H.An Dương, TP.Hải Phòng",
        "lon": 106.648811,
        "lat": 20.853633
      },
      {
        "id": 188170,
        "address_name": "114 Nguyễn Duy Hiệu, P.Cẩm Châu, TP.Hội An, T.Quảng Nam",
        "lon": 108.347461,
        "lat": 15.880958
      },
      {
        "id": 188426,
        "address_name": "Đội 7, Thôn Đỗ Xá, X.Vạn Điểm, H.Thường Tín, TP.Hà Nội",
        "lon": 105.9048,
        "lat": 20.771373
      },
      {
        "id": 188682,
        "address_name": "Xóm Bùng, X.Dũng Tiến, H.Thường Tín, TP.Hà Nội"
      },
      {
        "id": 188938,
        "address_name": "Đường Lê Thanh Nghị, Tiểu khu Cơ Quan, TT.Nt Mộc Châu, H.Mộc Châu, T.Sơn La"
      },
      {
        "id": 189194,
        "address_name": "Số 29 Đường Thành, P.Cửa Đông, Q.Hoàn Kiếm, TP.Hà Nội",
        "lon": 105.846273,
        "lat": 21.033126
      },
      {
        "id": 189450,
        "address_name": "172A Trương Công Định, P.3, TP.Vũng Tàu, T.Bà Rịa - Vũng Tàu",
        "lon": 107.083146,
        "lat": 10.351304
      },
      {
        "id": 196106,
        "address_name": "Số 229 Nguyễn Văn Cừ, P.Hồng Hải, TP.Hạ Long, T.Quảng Ninh",
        "lon": 107.099122703075,
        "lat": 20.9560719367407
      },
      {
        "id": 185099,
        "address_name": "Số 10 tổ 30 phố Thịnh Liệt - Khu đô thị Đồng Tàu, P.Thịnh Liệt, Q.Hoàng Mai, TP.Hà Nội",
        "lon": 105.8497,
        "lat": 20.9704
      },
      {
        "id": 185355,
        "address_name": "Số B57 Tô Ký, Khu phố 3, P.Đông Hưng Thuận, Q.12, TP.Hồ Chí Minh",
        "lon": 106.633278,
        "lat": 10.848721
      },
      {
        "id": 185611,
        "address_name": "285-287 Thanh Niên, P.Hải Tân, TP.Hải Dương, T.Hải Dương",
        "lon": 106.333920657635,
        "lat": 20.9263445938826
      },
      {
        "id": 185867,
        "address_name": "1-3 đường N1, KDC P.Phú Thuận (La casa), P.Phú Thuận, Q.7, TP.Hồ Chí Minh"
      },
      {
        "id": 187147,
        "address_name": "Thôn Việt Hùng, X.Nam Trung, H.Tiền Hải, T.Thái Bình",
        "lon": 106.53774,
        "lat": 20.342439
      },
      {
        "id": 187403,
        "address_name": "Shophouse ED.104, Nhà ở cao tầng kết hợp TMDV Eco Dream, Ô đất TT6, Khu đô thị Tây Nam Kim Giang I, X.Tân Triều, H.Thanh Trì, TP.Hà Nội"
      },
      {
        "id": 187659,
        "address_name": "219 Tây Thạnh, P.Tây Thạnh, Q.Tân Phú, TP.Hồ Chí Minh",
        "lon": 106.622809,
        "lat": 10.813201
      },
      {
        "id": 187915,
        "address_name": "Xóm 7, đường 352, X.Thiên Hương, H.Thuỷ Nguyên, TP.Hải Phòng",
        "lon": 106.724249124527,
        "lat": 20.9084407119612
      },
      {
        "id": 188171,
        "address_name": "21 khóm 8, P.6, TP.Trà Vinh, T.Trà Vinh",
        "lon": 106.341133117676,
        "lat": 9.92440868673027
      },
      {
        "id": 188427,
        "address_name": "Số 07,08 Khu Sân Vườn Cái Dăm, P.Bãi Cháy, TP.Hạ Long, T.Quảng Ninh",
        "lon": 106.61948,
        "lat": 10.712033
      },
      {
        "id": 188683,
        "address_name": "Số 71 Quán Chiền, X.Nam Dương, H.Nam Trực, T.Nam Định",
        "lon": 106.175805,
        "lat": 20.328945
      },
      {
        "id": 188939,
        "address_name": "Số 269 Lý Thánh Tông, Tổ Dân Phố Cầu Tre, P.Ngọc Xuyên, Q.Đồ Sơn, TP.Hải Phòng",
        "lon": 106.783087,
        "lat": 20.72034
      },
      {
        "id": 189195,
        "address_name": "259 Trần Phú, TT.Hương Khê, H.Hương Khê, T.Hà Tĩnh",
        "lon": 105.681956,
        "lat": 18.1837815
      },
      {
        "id": 189451,
        "address_name": "18I, Khu phố 4, P.Tân Phong, TP.Biên Hoà, T.Đồng Nai"
      },
      {
        "id": 196107,
        "address_name": "Thửa đất 316, tờ bản đồ 25A, tổ DP01, TT.Phú Túc, H. Krông Pa, T.Gia Lai"
      },
      {
        "id": 185100,
        "address_name": "Ô số 12 Lô B Đại Kim - Định Công, P.Đại Kim, Q.Hoàng Mai, TP.Hà Nội",
        "lon": 105.836002,
        "lat": 20.976109
      },
      {
        "id": 185356,
        "address_name": "Lô A-001,Tầng 1, chung cư Khu A, khu phố 6, P.Phước Long B, TP.Thủ Đức, TP.Hồ Chí Minh",
        "lon": 106.651542,
        "lat": 10.980202
      },
      {
        "id": 185612,
        "address_name": "Số TT4&TT5- Khu nhà ở XH và TM, BTL Tăng thiết giáp, P.Mỹ Đình 1, Q.Nam Từ Liêm, TP.Hà Nội"
      },
      {
        "id": 185868,
        "address_name": "5 ngõ 464 Âu Cơ, P.Nhật Tân, Q.Tây Hồ, TP.Hà Nội"
      },
      {
        "id": 187148,
        "address_name": "Số nhà 43 Đường Minh Cầu, P.Phan Đình Phùng, TP.Thái Nguyên, T.Thái Nguyên"
      },
      {
        "id": 187404,
        "address_name": "Thôn Thị Tứ, X.Dân Lực, H.Triệu Sơn, T.Thanh Hóa",
        "lon": 105.599826872349,
        "lat": 19.8406495032575
      },
      {
        "id": 187660,
        "address_name": "56B Đinh Tiên Hoàng, P.Ngô Quyền, Thị X.Sơn Tây, TP.Hà Nội",
        "lon": 105.502947,
        "lat": 21.142954
      },
      {
        "id": 187916,
        "address_name": "Thôn Đình, X.Trung Hà, H.Thuỷ Nguyên, TP.Hải Phòng",
        "lon": 106.702571511269,
        "lat": 20.9369290762938
      },
      {
        "id": 188172,
        "address_name": "25 - 27 Hoàng Ngân, P.Phan Đình Phùng, TP.Thái Nguyên, T.Thái Nguyên",
        "lon": 105.8455,
        "lat": 21.5858
      },
      {
        "id": 188428,
        "address_name": "102-104 Tô Vũ /193 Văn Cao, P.Đằng Lâm, Q.Hải An, TP.Hải Phòng",
        "lon": 106.7036819458,
        "lat": 20.8373252339
      },
      {
        "id": 188684,
        "address_name": "Thôn Xuân Trung, X.Thủy Xuân Tiên, H.Chương Mỹ, TP.Hà Nội",
        "lon": 105.577283,
        "lat": 20.877508
      },
      {
        "id": 188940,
        "address_name": "Số 8 ngõ 63 Lê Đức Thọ, P.Mỹ Đình 2, Q.Nam Từ Liêm, TP.Hà Nội",
        "lon": 105.772719,
        "lat": 21.029562
      },
      {
        "id": 189196,
        "address_name": "8/1A Khu phố 4, TT.Hóc Môn, H.Hóc Môn, TP.Hồ Chí Minh",
        "lon": 106.594942,
        "lat": 10.890643
      },
      {
        "id": 189452,
        "address_name": "Căn TMDV 04, Tầng SH, Block Sky.B, Dự án C-Sky view, 212 Trần Phú, P.Chánh Nghĩa, TP.Thủ Dầu Một, T.Bình Dương",
        "lon": 105.898118019104,
        "lat": 21.0266979494783
      },
      {
        "id": 185101,
        "address_name": "Số 17B phố Đoàn Thị Điểm, P.Quốc Tử Giám, Q.Đống Đa, TP.Hà Nội",
        "lon": 105.832674,
        "lat": 21.026112
      },
      {
        "id": 185357,
        "address_name": "Thôn Đào Xuyên, X.Đa Tốn, H.Gia Lâm, TP.Hà Nội",
        "lon": 105.920115,
        "lat": 20.98247
      },
      {
        "id": 185613,
        "address_name": "Số 30 Việt Hưng, P.Việt Hưng, Q.Long Biên, TP.Hà Nội",
        "lon": 105.898496,
        "lat": 21.059449
      },
      {
        "id": 185869,
        "address_name": "PRV - 209, Khu thấp tầng 2A Park River (Ecopark), X.Xuân Quan, H.Văn Giang, T.Hưng Yên"
      },
      {
        "id": 187149,
        "address_name": "Số 102-104 Đường Cốc Lếu, P.Cốc Lếu, TP.Lào Cai, T.Lào Cai",
        "lon": 103.963993191719,
        "lat": 22.4986953733566
      },
      {
        "id": 187405,
        "address_name": "Thôn Thổ Nam, X.Tế Thắng, H.Nông Cống, T.Thanh Hóa",
        "lon": 105.74685,
        "lat": 21.034624
      },
      {
        "id": 187661,
        "address_name": "56 ngõ 43 Cổ Nhuế, P.Cổ Nhuế 2, Q.Bắc Từ Liêm, TP.Hà Nội",
        "lon": 105.781468749046,
        "lat": 21.0591787436543
      },
      {
        "id": 187917,
        "address_name": "Thôn Quan Độ, X.Văn Môn, H.Yên Phong, T.Bắc Ninh",
        "lon": 105.924519002438,
        "lat": 21.1685648871228
      },
      {
        "id": 188173,
        "address_name": "623 Ngô Gia Tự, P.Đằng Lâm, Q.Hải An, TP.Hải Phòng",
        "lon": 106.71473,
        "lat": 20.829392
      },
      {
        "id": 188429,
        "address_name": "25 đường số 6, P.Hiệp Bình Chánh, TP.Thủ Đức, TP.Hồ Chí Minh",
        "lon": 106.728097,
        "lat": 10.830627
      },
      {
        "id": 188685,
        "address_name": "Thôn Tân Trại, X.Phú Cường, H.Sóc Sơn, TP.Hà Nội",
        "lon": 105.797299,
        "lat": 21.208579
      },
      {
        "id": 188941,
        "address_name": "Lô thương mại TM02, Tầng 1+2, thuộc dự án Khu chưng cư cao tầng Lavita Charm, Đường số 1, P.Trường Thọ, TP.Thủ Đức, TP.Hồ Chí Minh"
      },
      {
        "id": 189197,
        "address_name": "9/8 Nguyễn Khuyến, Tổ 44, P.Trảng Dài, TP.Biên Hoà, T.Đồng Nai",
        "lon": 106.861821770668,
        "lat": 10.99990638994
      },
      {
        "id": 189453,
        "address_name": "108 Trưng Nữ Vương, P.Châu Phú B, TP.Châu Đốc, T.An Giang",
        "lon": 105.119141,
        "lat": 10.707317
      },
      {
        "id": 185102,
        "address_name": "Số 23 phố Gia Ngư, P.Hàng Bạc, Q.Hoàn Kiếm, TP.Hà Nội",
        "lon": 105.852765887976,
        "lat": 21.0330807656468
      },
      {
        "id": 185358,
        "address_name": "154 Bạch Đằng, TT.Núi Đèo, H.Thuỷ Nguyên, TP.Hải Phòng",
        "lon": 106.6793140769,
        "lat": 20.9202240419019
      },
      {
        "id": 185614,
        "address_name": "1343, Tổ 33, Đại Lộ Hùng Vương, P.Tiên Cát, TP.Việt Trì, T.Phú Thọ",
        "lon": 105.3971,
        "lat": 21.3126
      },
      {
        "id": 185870,
        "address_name": "Khu nhà X.hội Cao Nguyên 2, P.Võ Cường, TP.Bắc Ninh, T.Bắc Ninh",
        "lon": 106.050826907158,
        "lat": 21.1690826385683
      },
      {
        "id": 187150,
        "address_name": "Số 124, Tổ 8, P.Quyết Thắng, TP.Sơn La, T.Sơn La",
        "lon": 103.9224,
        "lat": 21.3255
      },
      {
        "id": 187406,
        "address_name": "Kiot số 22 & 24, Tòa nhà B1.3 – HH03A, Khu đô thị Thanh Hà – Cienco 5, X.Cự Khê, H.Thanh Oai, TP.Hà Nội"
      },
      {
        "id": 187662,
        "address_name": "53 Đinh Tiên Hoàng, P.Tân An, TP.Hội An, T.Quảng Nam",
        "lon": 108.32938,
        "lat": 15.885172
      },
      {
        "id": 187918,
        "address_name": "10 Lê Duẩn, P.Phan Thiết, TP.Tuyên Quang, T.Tuyên Quang",
        "lon": 105.204445123672,
        "lat": 21.825140043769
      },
      {
        "id": 188174,
        "address_name": "Thôn Chằm, X.Bình Minh, H.Thanh Oai, TP.Hà Nội",
        "lon": 105.768615,
        "lat": 20.8900635
      },
      {
        "id": 188430,
        "address_name": "125 Nguyễn Thái Học, P.Mỹ Bình, TP.Long Xuyên, T.An Giang",
        "lon": 105.438027,
        "lat": 10.389332
      },
      {
        "id": 188686,
        "address_name": "W201S05 Tòa Shop và TMDV Vinhomes West Point, lô đất HH, Đường Phạm Hùng, P.Mễ Trì, Q.Nam Từ Liêm, TP.Hà Nội"
      },
      {
        "id": 188942,
        "address_name": "1/84 Cư xá Lữ Gia, P.15, Q.11, TP.Hồ Chí Minh",
        "lon": 106.654537,
        "lat": 10.771248
      },
      {
        "id": 189198,
        "address_name": "Số 075, Đường Vườn Cam, P.Hợp Giang, TP.Cao Bằng, T.Cao Bằng"
      },
      {
        "id": 189454,
        "address_name": "06/27 Thôn Phi Nôm, X.Hiệp Thạnh, H.Đức Trọng, T.Lâm Đồng",
        "lon": 108.4108543396,
        "lat": 11.788593152969
      },
      {
        "id": 185103,
        "address_name": "Số 16 ngõ 12 phố Trần Quý Kiên, tổ 58A, P.Dịch Vọng, Q.Cầu Giấy, TP.Hà Nội",
        "lon": 105.792162716389,
        "lat": 21.0363765901591
      },
      {
        "id": 185359,
        "address_name": "Số 252 Đông Khê, P.Đằng Giang, Q.Ngô Quyền, TP.Hải Phòng",
        "lon": 106.698894202709,
        "lat": 20.8481039883085
      },
      {
        "id": 185615,
        "address_name": "266 Phố Vãn, P.Đông Vệ, TP.Thanh Hoá, T.Thanh Hoá",
        "lon": 105.782338,
        "lat": 19.798938
      },
      {
        "id": 185871,
        "address_name": "Phố Phạm Sư Mạnh, P.Vũ Ninh, TP.Bắc Ninh, T.Bắc Ninh",
        "lon": 106.074939,
        "lat": 21.192171
      },
      {
        "id": 187151,
        "address_name": "Số 701 Đường Đại Đồng, Tổ 5, TT.Yên Bình, H.Yên Bình, T.Yên Bái",
        "lon": 105.465230941772,
        "lat": 21.0065775847149
      },
      {
        "id": 187407,
        "address_name": "389 Nguyễn Văn Linh, P.Phú Lâm, TP.Tuy Hòa, T.Phú Yên",
        "lon": 109.310299,
        "lat": 13.044593
      },
      {
        "id": 187663,
        "address_name": "376-378 Kinh Dương Vương, khu TĐC Hoà Minh 3, P.Hoà Minh, Q.Liên Chiểu, TP.Đà Nẵng",
        "lon": 108.166078,
        "lat": 16.057952
      },
      {
        "id": 187919,
        "address_name": "Tầng 1, Tòa nhà Kinh Đô, 93 Lò Đúc, P.Phạm Đình Hổ, Q.Hai Bà Trưng, TP.Hà Nội",
        "lon": 105.857408,
        "lat": 21.0153686
      },
      {
        "id": 188175,
        "address_name": "Thôn Cổ Dương, X.Tiên Dương, H.Đông Anh, TP.Hà Nội",
        "lon": 105.830888450146,
        "lat": 21.1543872982548
      },
      {
        "id": 188431,
        "address_name": "34 Tân Thới Nhất 21, P.Tân Thới Nhất, Q.12, TP.Hồ Chí Minh",
        "lon": 106.622383,
        "lat": 10.823005
      },
      {
        "id": 188687,
        "address_name": "Số 1 đường Trần Quang Triều, Khu Yên Lâm 3, P.Đức Chính, Thị X.Đông Triều, T.Quảng Ninh",
        "lon": 106.518746316433,
        "lat": 21.0898956720156
      },
      {
        "id": 188943,
        "address_name": "22/2 Nguyễn Bình, Ấp 2, X.Phú Xuân, H.Nhà Bè, TP.Hồ Chí Minh",
        "lon": 106.747885,
        "lat": 10.677965
      },
      {
        "id": 189199,
        "address_name": "Số 496 Đường Bà Triệu, TT.Hậu Lộc, H.Hậu Lộc, T.Thanh Hoá"
      },
      {
        "id": 189455,
        "address_name": "32 Thống Nhất, TT.Liên Nghĩa, H.Đức Trọng, T.Lâm Đồng",
        "lon": 108.374358862638,
        "lat": 11.7352626253523
      },
      {
        "id": 184080,
        "address_name": "L1 - 01, khu TTTM Almaz Long Biên, đường Hoa Lan, khu đô thị sinh thái Vinhomes Riverside, P.Phúc Lợi, Q.Long Biên, TP.Hà Nội",
        "lon": 105.915525555611,
        "lat": 21.0408426727706
      },
      {
        "id": 185104,
        "address_name": "Số 17 phố Trần Quốc Hoàn, P.Dịch Vọng Hậu, Q.Cầu Giấy, TP.Hà Nội",
        "lon": 105.789944529533,
        "lat": 21.0416287295063
      },
      {
        "id": 185360,
        "address_name": "Số 15 ngõ 259 Yên Hòa, P.Yên Hoà, Q.Cầu Giấy, TP.Hà Nội",
        "lon": 105.792135894299,
        "lat": 21.0216030167343
      },
      {
        "id": 185616,
        "address_name": "Số 422 Lạch Tray, P.Đằng Giang, Q.Ngô Quyền, TP.Hải Phòng",
        "lon": 106.697519,
        "lat": 20.832866
      },
      {
        "id": 185872,
        "address_name": "Khu 8, P.Nông Trang, TP.Việt Trì, T.Phú Thọ",
        "lon": 105.375183820724,
        "lat": 21.3316867296589
      },
      {
        "id": 187152,
        "address_name": "Thôn Quế Sơn, X.Thái Sơn, H.Hiệp Hoà, T.Bắc Giang",
        "lon": 105.949655,
        "lat": 21.368854
      },
      {
        "id": 187408,
        "address_name": "Số 488 Quang Trung, P.Tam Quan, Thị X.Hoài Nhơn, T.Bình Định",
        "lon": 109.04897,
        "lat": 14.562944
      },
      {
        "id": 187664,
        "address_name": "1.26-1.27, Tầng 1, Khối đế, chung cư Viva, số 1472 Võ Văn Kiệt và số 445 - 449 Gia Phú, P.03, Q.6, TP.Hồ Chí Minh"
      },
      {
        "id": 187920,
        "address_name": "344 Ngọc Thụy, P.Ngọc Thuỵ, Q.Long Biên, TP.Hà Nội",
        "lon": 105.863808,
        "lat": 21.059153
      },
      {
        "id": 188176,
        "address_name": "Thôn Đại Lộc 5, X.Đại Hợp, H.Kiến Thuỵ, TP.Hải Phòng"
      },
      {
        "id": 188432,
        "address_name": "4 Đình Đoài, P.Hải Sơn, Q.Đồ Sơn, TP.Hải Phòng",
        "lon": 106.78356,
        "lat": 20.7164953
      },
      {
        "id": 188688,
        "address_name": "Số 438 Đặng Châu Tuệ, P.Quang Hanh, TP.Cẩm Phả, T.Quảng Ninh",
        "lon": 107.17967748642,
        "lat": 20.9733414946535
      },
      {
        "id": 188944,
        "address_name": "27 Lê Duẩn, khu 12, X.Long Đức, H.Long Thành, T.Đồng Nai",
        "lon": 106.945086121559,
        "lat": 10.7970596191572
      },
      {
        "id": 189200,
        "address_name": "Ấp Đông Côi, TT.Hồ, H.Thuận Thành, T.Bắc Ninh",
        "lon": 106.089737713337,
        "lat": 21.0386997709184
      },
      {
        "id": 189456,
        "address_name": "47/08 Nguyễn Hữu Tiến, P.Tây Thạnh, Q.Tân Phú, TP.Hồ Chí Minh",
        "lon": 106.625192463398,
        "lat": 10.8102672076965
      },
      {
        "id": 185105,
        "address_name": "Số 310 đường Minh Khai, P.Minh Khai, Q.Hai Bà Trưng, TP.Hà Nội",
        "lon": 105.86135,
        "lat": 20.995839
      },
      {
        "id": 185361,
        "address_name": "Tầng 1, tòa nhà N01-T4, Dự án Nhà ở chung cư cao cấp N01-T4&T5, Khu Đoàn Ngoại Giao Hà Nội, P.Xuân Tảo, Q.Bắc Từ Liêm, TP.Hà Nội"
      },
      {
        "id": 185617,
        "address_name": "42 Trần Phú, tổ 12B khu 4, P.Quang Trung, TP.Uông Bí, T.Quảng Ninh"
      },
      {
        "id": 185873,
        "address_name": "01 nhà B1, khu tập thể Quân đội Mai Dịch, P.Mai Dịch, Q.Cầu Giấy, TP.Hà Nội"
      },
      {
        "id": 187153,
        "address_name": "505 Nguyễn Văn Tạo, X.Long Thới, H.Nhà Bè, TP.Hồ Chí Minh",
        "lon": 106.733139,
        "lat": 10.641678
      },
      {
        "id": 187409,
        "address_name": "109 Đường Cách Mạng Tháng 8, TT.Tân Nghĩa, H.Hàm Tân, T.Bình thuận",
        "lon": 107.7251,
        "lat": 10.8163
      },
      {
        "id": 187665,
        "address_name": "Thôn Kiêu Kỵ, X.Kiêu Kỵ, H.Gia Lâm, TP.Hà Nội",
        "lon": 105.959709584713,
        "lat": 20.9857082276275
      },
      {
        "id": 187921,
        "address_name": "Số 2 ngõ 239 Trâu Quỳ, TT.Trâu Quỳ, H.Gia Lâm, TP.Hà Nội",
        "lon": 105.937270224094,
        "lat": 21.0180502308657
      },
      {
        "id": 188177,
        "address_name": "102 Điện Biên Phủ, P.Trường An, TP.Huế, T.Thừa Thiên Huế",
        "lon": 107.581166,
        "lat": 16.452807
      },
      {
        "id": 188433,
        "address_name": "79 ngõ 94 Thượng Thanh, P.Thượng Thanh, Q.Long Biên, TP.Hà Nội",
        "lon": 105.889518857002,
        "lat": 21.0590736149421
      },
      {
        "id": 188689,
        "address_name": "HR1SH1, tầng trệt và tầng 1, tòa nhà HR1, Dự án Khu dân cư Tân Thuận Tây, đường Nguyễn Văn Linh, P.Tân Thuận Tây, Q.7, TP.Hồ Chí Minh",
        "lon": 106.723508834839,
        "lat": 10.7491301450197
      },
      {
        "id": 188945,
        "address_name": "97 Phan Châu Trinh, P.Phước Hòa, TP.Tam Kỳ, T.Quảng Nam",
        "lon": 108.486369,
        "lat": 15.570793
      },
      {
        "id": 189201,
        "address_name": "Số 36C Lý Nam Đế, P.Cửa Đông, Q.Hoàn Kiếm, TP.Hà Nội",
        "lon": 105.84426,
        "lat": 21.031997
      },
      {
        "id": 189457,
        "address_name": "Số 107 Bà Triệu, Tiểu khu Thái Hòa, TT.Nông Cống, H.Nông Cống, T.Thanh Hoá",
        "lon": 105.653253,
        "lat": 19.6279555
      },
      {
        "id": 185106,
        "address_name": "Số 94, Trần văn Dư, P.13, Q.Tân Bình, TP.Hồ Chí Minh",
        "lon": 106.644698,
        "lat": 10.807645
      },
      {
        "id": 185362,
        "address_name": "Lô 01, tầng 1 Nhà chung cư cao tầng CT2-E tại ô đất CT2, Khu đất đài phát sóng phát thanh Mễ Trì, P.Mễ Trì, Q.Nam Từ Liêm, TP.Hà Nội",
        "lon": 105.420417,
        "lat": 21.429134
      },
      {
        "id": 185618,
        "address_name": "Thôn Vân Lũng, X.An Khánh, H.Hoài Đức, TP.Hà Nội",
        "lon": 105.718776,
        "lat": 21.002433
      },
      {
        "id": 185874,
        "address_name": "51 phố Huyện, TT.Quốc Oai, H.Quốc Oai, TP.Hà Nội",
        "lon": 105.641701,
        "lat": 20.992056
      },
      {
        "id": 187154,
        "address_name": "Thôn Khánh Mỹ, X.Phúc Khánh, H.Hưng Hà, T.Thái Bình",
        "lon": 106.199198,
        "lat": 20.610286
      },
      {
        "id": 187410,
        "address_name": "Thôn Phú Long, X.An Mỹ, H.Tuy An, T.Phú Yên",
        "lon": 109.279951,
        "lat": 13.202894
      },
      {
        "id": 187666,
        "address_name": "182 Minh Đức, TT.Tiên Lãng, H.Tiên Lãng, TP.Hải Phòng",
        "lon": 106.554744243622,
        "lat": 20.7261613687639
      },
      {
        "id": 187922,
        "address_name": "62 đường 30 tháng 4, P.3, TP.Sóc Trăng, T.Sóc Trăng",
        "lon": 105.9733,
        "lat": 9.592669
      },
      {
        "id": 188178,
        "address_name": "10 Nguyễn Thụy, P.Trần Phú, TP.Quảng Ngãi, T.Quảng Ngãi",
        "lon": 108.783877,
        "lat": 15.119699
      },
      {
        "id": 188434,
        "address_name": "Tầng 1, nhà A, chung cư Phúc Hưng II, P.Bần Yên Nhân, Thị X.Mỹ Hào, T.Hưng Yên",
        "lon": 106.060099303722,
        "lat": 20.9403760740655
      },
      {
        "id": 188690,
        "address_name": "136 Nguyễn Công Hoan, P.07, Q.Phú Nhuận, TP.Hồ Chí Minh",
        "lon": 106.690521,
        "lat": 10.797903
      },
      {
        "id": 188946,
        "address_name": "Xóm Đông, Thôn Phú Mỹ, X.Ngọc Mỹ, H.Quốc Oai, TP.Hà Nội",
        "lon": 105.62649,
        "lat": 20.989973
      },
      {
        "id": 189202,
        "address_name": "Số 441 Đường Phạm Văn Đồng, P.Hải Thành, Q.Dương Kinh, TP.Hải Phòng",
        "lon": 106.712881,
        "lat": 20.7966999
      },
      {
        "id": 189458,
        "address_name": "Số 150 Lý Thường Kiệt, Khu phố Trịnh Xá, P.Châu Khê, TP.Từ Sơn, T.Bắc Ninh",
        "lon": 105.934664,
        "lat": 21.110699
      },
      {
        "id": 185107,
        "address_name": "A7-003 và A7-004, tầng trệt, khu căn hộ Ehome 3 Tây Sài Gòn, đường Hồ Học Lãm, P.An Lạc, Q.Bình Tân, TP.Hồ Chí Minh",
        "lon": 106.701687052846,
        "lat": 10.7575684198083
      },
      {
        "id": 185363,
        "address_name": "Số 21 Khu B1 Lô 7B, đường Lê Hồng Phong, P.Đông Khê, Q.Ngô Quyền, TP.Hải Phòng"
      },
      {
        "id": 185619,
        "address_name": "Lô BT3- ô 24, KĐTM Pháp Vân - Tứ Hiệp, P.Hoàng Liệt, Q.Hoàng Mai, TP.Hà Nội"
      },
      {
        "id": 185875,
        "address_name": "Thôn Phương Trạch, X.Vĩnh Ngọc, H.Đông Anh, TP.Hà Nội",
        "lon": 105.817179679871,
        "lat": 21.1139832321954
      },
      {
        "id": 187155,
        "address_name": "2/15 Nguyễn Du, P.Bình Hòa, TP.Thuận An, T.Bình Dương",
        "lon": 106.727827,
        "lat": 10.90985
      },
      {
        "id": 187411,
        "address_name": "Số 181 Đường Trần Nhật Duật, P.Vị Xuyên, TP.Nam Định, T.Nam Định",
        "lon": 106.186519,
        "lat": 20.436791
      },
      {
        "id": 187667,
        "address_name": "78 quốc lộ 3, X.Phù Lỗ, H.Sóc Sơn, TP.Hà Nội",
        "lon": 105.848819,
        "lat": 21.206571
      },
      {
        "id": 187923,
        "address_name": "64 Tô Hiến Thành, P.Phước Mỹ, Q.Sơn Trà, TP.Đà Nẵng",
        "lon": 108.241888,
        "lat": 16.062525
      },
      {
        "id": 188179,
        "address_name": "96 Trịnh Đình Thảo, P.Khuê Trung, Q.Cẩm Lệ, TP.Đà Nẵng",
        "lon": 108.21142,
        "lat": 16.025633
      },
      {
        "id": 188435,
        "address_name": "162 Bùi Thị Xuân, P.P.Đúc, TP.Huế, T.Thừa Thiên Huế",
        "lon": 107.567947,
        "lat": 16.454515
      },
      {
        "id": 188691,
        "address_name": "0.02 Tầng 1, Lô C, Chung cư Phúc Thịnh, 341 Cao Đạt, P.01, Q.5, TP.Hồ Chí Minh",
        "lon": 106.680362,
        "lat": 10.753726
      },
      {
        "id": 188947,
        "address_name": "Thôn Ngọc Động, X.Bình Dương, H.Vĩnh Tường, T.Vĩnh Phúc",
        "lon": 105.506553053856,
        "lat": 21.2219662726132
      },
      {
        "id": 189203,
        "address_name": "31/55 Ung Văn Khiêm, P.25, Q.Bình Thạnh, TP.Hồ Chí Minh",
        "lon": 106.715068,
        "lat": 10.809984
      },
      {
        "id": 189459,
        "address_name": "251 Hoàng Văn Thụ, P.Ngô Mây, TP.Quy Nhơn, T.Bình Định",
        "lon": 109.213691,
        "lat": 13.768527
      },
      {
        "id": 185108,
        "address_name": "408 Hoàng Diệu, P.Bình Thuận, Q.Hải Châu, TP.Đà Nẵng",
        "lon": 108.217252492905,
        "lat": 16.0550775381301
      },
      {
        "id": 185364,
        "address_name": "121 Dư Hàng, P.Dư Hàng, Q.Lê Chân, TP.Hải Phòng",
        "lon": 106.677526,
        "lat": 20.848982
      },
      {
        "id": 185620,
        "address_name": "Tầng 1- Toà chung cư và dịch vụ Star Tower, 283 Khương Trung, P.Khương Trung, Q.Thanh Xuân, TP.Hà Nội",
        "lon": 105.817501,
        "lat": 20.9946658
      },
      {
        "id": 185876,
        "address_name": "38 Đặng Văn Trơn, Khu phố Nhị Hòa, P.Hiệp Hòa, TP.Biên Hoà, T.Đồng Nai",
        "lon": 106.830263435841,
        "lat": 10.934044515333
      },
      {
        "id": 187156,
        "address_name": "Số 116 Tây Tựu, P.Tây Tựu, Q.Bắc Từ Liêm, TP.Hà Nội",
        "lon": 105.735208690166,
        "lat": 21.0676463671614
      },
      {
        "id": 187412,
        "address_name": "Số 55A Quang Trung, TT.Phan Rí Cửa, H.Tuy Phong, T.Bình Thuận"
      },
      {
        "id": 187668,
        "address_name": "51 Hai Bà Trưng, TT.Lim, H.Tiên Du, T.Bắc Ninh"
      },
      {
        "id": 187924,
        "address_name": "K116/92 Nguyễn Văn Thoại, P.Mỹ An, Q.Ngũ Hành Sơn, TP.Đà Nẵng",
        "lon": 108.237793,
        "lat": 16.05379
      },
      {
        "id": 188180,
        "address_name": "8/9 Nguyễn Thị Sóc, X.Bà Điểm, H.Hóc Môn, TP.Hồ Chí Minh",
        "lon": 106.600166,
        "lat": 10.849228
      },
      {
        "id": 188436,
        "address_name": "186 - 188 Nguyễn Hùng Sơn, P.Vĩnh Thanh Vân, TP.Rạch Giá, T.Kiên Giang",
        "lon": 105.081643,
        "lat": 10.008878
      },
      {
        "id": 188692,
        "address_name": "507 Phùng Hưng, P.Tam Phước, TP.Biên Hoà, T.Đồng Nai",
        "lon": 106.971465647221,
        "lat": 10.8678252623566
      },
      {
        "id": 188948,
        "address_name": "Gian hàng TM1, tầng 1 chung cư CT1B, thuộc dự án cải tạo khu C, chung cư Quang Trung, P.Quang Trung, TP.Vinh, T.Nghệ An"
      },
      {
        "id": 189204,
        "address_name": "167 Ngô Quyền, P.An Hoà, TP.Biên Hoà, T.Đồng Nai",
        "lon": 106.864539384842,
        "lat": 10.894170395856
      },
      {
        "id": 189460,
        "address_name": "12-12A Chiến Lược, P.Bình Trị Đông, Q.Bình Tân, TP.Hồ Chí Minh",
        "lon": 106.621767,
        "lat": 10.760057
      },
      {
        "id": 185109,
        "address_name": "11A (SG-8-1), đường Tiểu Nam, khu phố Cảnh Viên (SS2), P.Tân Phú, Q.7, TP.Hồ Chí Minh"
      },
      {
        "id": 185365,
        "address_name": "Số 904 Tôn Đức Thắng, P.Hoà Khánh Bắc, Q.Liên Chiểu, TP.Đà Nẵng",
        "lon": 108.1507344862,
        "lat": 16.0713337601
      },
      {
        "id": 185621,
        "address_name": "11 - 11A Lê Văn Lộc, P.Thắng Nhì, TP.Vũng Tàu, T.Bà Rịa - Vũng Tàu",
        "lon": 107.083908,
        "lat": 10.369678
      },
      {
        "id": 185877,
        "address_name": "Kiot C3-2, Chung cư C3, KĐT Mỹ Đình 1, Nguyễn Cơ Thạch, P.Cầu Diễn, Q.Nam Từ Liêm, TP.Hà Nội",
        "lon": 105.764812231064,
        "lat": 21.0319304018341
      },
      {
        "id": 187157,
        "address_name": "28A Tây Lân, P.Bình Trị Đông A, Q.Bình Tân, TP.Hồ Chí Minh",
        "lon": 106.589731,
        "lat": 10.770818
      },
      {
        "id": 187413,
        "address_name": "Thôn Đông Tiến, X.Tân Tiến, H.Chương Mỹ, TP.Hà Nội",
        "lon": 105.796529,
        "lat": 20.999446
      },
      {
        "id": 187669,
        "address_name": "Ô 38 BT1, Khu ĐTM Pháp Vân - Tứ Hiệp, P.Hoàng Liệt, Q.Hoàng Mai, TP.Hà Nội"
      },
      {
        "id": 187925,
        "address_name": "SH.15, Tầng 1, Tháp RS6, Khu Thương mại Dịch vụ và căn hộ - Khu 2, 239-241 Hòa Bình, P.Hiệp Tân, Q.Tân Phú, TP.Hồ Chí Minh"
      },
      {
        "id": 188181,
        "address_name": "483 Lê Văn Quới, P.Bình Trị Đông A, Q.Bình Tân, TP.Hồ Chí Minh",
        "lon": 106.603362,
        "lat": 10.776271
      },
      {
        "id": 188437,
        "address_name": "320 Quốc lộ 62, P.6, TP.Tân An, T.Long An",
        "lon": 106.397337,
        "lat": 10.543465
      },
      {
        "id": 188693,
        "address_name": "26 Nhất Chi Mai, P.13, Q.Tân Bình, TP.Hồ Chí Minh",
        "lon": 106.63976,
        "lat": 10.804002
      },
      {
        "id": 188949,
        "address_name": "Số 85 Tổ 7, P.Tân Giang, TP.Cao Bằng, T.Cao Bằng",
        "lon": 106.2688,
        "lat": 22.6534
      },
      {
        "id": 189205,
        "address_name": "79A Nơ Trang Long, P.Rạch Dừa, TP.Vũng Tàu, T.Bà Rịa - Vũng Tàu",
        "lon": 107.11206,
        "lat": 10.394195
      },
      {
        "id": 189461,
        "address_name": "SH B4 tòa CT6B, Khu đô thị mới Dương Nội, P.Dương Nội, Q.Hà Đông, TP.Hà Nội",
        "lon": 105.7421,
        "lat": 20.9606
      },
      {
        "id": 185110,
        "address_name": "Số 18 Trương Gia Mô, P.Thạnh Mỹ Lợi, TP.Thủ Đức, TP.Hồ Chí Minh",
        "lon": 106.771351397038,
        "lat": 10.7716202682431
      },
      {
        "id": 185366,
        "address_name": "Số 152 Trần Cao Vân, P.Tam Thuận, Q.Thanh Khê, TP.Đà Nẵng",
        "lon": 108.208324,
        "lat": 16.072466
      },
      {
        "id": 185622,
        "address_name": "Lô A7 - 10/7 TT Chí Linh, P.Nguyễn An Ninh, TP.Vũng Tàu, T.Bà Rịa - Vũng Tàu",
        "lon": 107.111683,
        "lat": 10.37843
      },
      {
        "id": 185878,
        "address_name": "284 Tựu Liệt, X.Tam Hiệp, H.Thanh Trì, TP.Hà Nội",
        "lon": 105.83655,
        "lat": 20.953385
      },
      {
        "id": 187158,
        "address_name": "B8/29B Hưng Nhơn, X.Tân Kiên, H.Bình Chánh, TP.Hồ Chí Minh",
        "lon": 106.59268,
        "lat": 10.713724
      },
      {
        "id": 187414,
        "address_name": "Thôn Phấn Thôn, X.Thọ Hải, H.Thọ Xuân, T.Thanh Hóa",
        "lon": 105.911829,
        "lat": 21.000002
      },
      {
        "id": 187670,
        "address_name": "LK01-01 Dự án Tổ hợp thương mại dịch vụ và căn hộ cao cấp Hải Phát Plaza, P.Đại Mỗ, Q.Nam Từ Liêm, TP.Hà Nội"
      },
      {
        "id": 187926,
        "address_name": "162 Trưng Trắc, P.Trưng Trắc, TP.Phúc Yên, T.Vĩnh Phúc",
        "lon": 105.708646774292,
        "lat": 21.2398624435341
      },
      {
        "id": 188182,
        "address_name": "469 Nguyễn Trãi, P.Nguyễn Trãi, TP.Hà Giang, T.Hà Giang"
      },
      {
        "id": 188438,
        "address_name": "50-52 đường 50A, P.Tân Tạo, Q.Bình Tân, TP.Hồ Chí Minh",
        "lon": 106.596362,
        "lat": 10.752131
      },
      {
        "id": 188694,
        "address_name": "Tổ 8, TT.Vị Xuyên, H.Vị Xuyên, T.Hà Giang",
        "lon": 104.985265731812,
        "lat": 22.6633732620614
      },
      {
        "id": 188950,
        "address_name": "Số 78 Đường Lê Nin, Khối Tân Hòa, P.Hà Huy Tập, TP.Vinh, T.Nghệ An",
        "lon": 105.68872064352,
        "lat": 18.6936639838588
      },
      {
        "id": 189206,
        "address_name": "Số 126-128 Trần Hưng Đạo, TT.Ninh Giang, H.Ninh Giang, T.Hải Dương",
        "lon": 106.399801075459,
        "lat": 20.7314268774031
      },
      {
        "id": 189462,
        "address_name": "Thôn Hòa Bình, X.Hoàng Văn Thụ, H.Chương Mỹ, TP.Hà Nội",
        "lon": 105.624331533909,
        "lat": 20.8435569520937
      },
      {
        "id": 185111,
        "address_name": "Số 101/1 phố Nguyễn Quý Đức, P.Thanh Xuân Bắc, Q.Thanh Xuân, TP.Hà Nội",
        "lon": 105.800644,
        "lat": 20.99102
      },
      {
        "id": 185367,
        "address_name": "10-10B Nguyễn Hữu Tiến, P.Tây Thạnh, Q.Tân Phú, TP.Hồ Chí Minh",
        "lon": 106.626062,
        "lat": 10.808391
      },
      {
        "id": 185623,
        "address_name": "Số 492 Xuân Đỉnh, TDP 4 Cáo Đỉnh, P.Xuân Đỉnh, Q.Bắc Từ Liêm, TP.Hà Nội",
        "lon": 105.788494,
        "lat": 21.075353
      },
      {
        "id": 185879,
        "address_name": "446 Nguyễn Văn Cừ, P.Hồng Hải, TP.Hạ Long, T.Quảng Ninh",
        "lon": 107.106919,
        "lat": 20.948645
      },
      {
        "id": 187159,
        "address_name": "Thôn Uy Nam, X.Quảng Ngọc, H.Quảng Xương, T.Thanh Hoá"
      },
      {
        "id": 187415,
        "address_name": "79 Lê Thành Phương, TT.Chí Thạnh, H.Tuy An, T.Phú Yên",
        "lon": 109.2099720103,
        "lat": 13.3072918778
      },
      {
        "id": 187671,
        "address_name": "Khu Dương Ổ, P.Phong Khê, TP.Bắc Ninh, T.Bắc Ninh",
        "lon": 106.035692,
        "lat": 21.157737
      },
      {
        "id": 187927,
        "address_name": "106 Nguyễn Hiền, P.Bách Khoa, Q.Hai Bà Trưng, TP.Hà Nội",
        "lon": 105.846113,
        "lat": 21.000631
      },
      {
        "id": 188183,
        "address_name": "Thôn Ngọc Chi, X.Vĩnh Ngọc, H.Đông Anh, TP.Hà Nội"
      },
      {
        "id": 188439,
        "address_name": "174 – 176 Hạ Hội, X.Tân Lập, H.Đan Phượng, TP.Hà Nội"
      },
      {
        "id": 188695,
        "address_name": "1157 Trường Chinh, TT.Việt Quang, H.Bắc Quang, T.Hà Giang",
        "lon": 104.824612140656,
        "lat": 22.3927474948605
      },
      {
        "id": 188951,
        "address_name": "B1.01.05, Tầng 1, Block B1, Khu TMDV, Khu căn hộ - thương mại dịch vụ cao tầng đường Kha Vạn Cân, 10 đường Kha Vạn Cân, Khu phố Bình Đường 2, P.An Bình, TP.Dĩ An, T.Bình Dương"
      },
      {
        "id": 189207,
        "address_name": "Khối 3, TT.Quỳ Hợp, H.Quỳ Hợp, T.Nghệ An",
        "lon": 105.182815,
        "lat": 19.319272
      },
      {
        "id": 189463,
        "address_name": "Thôn Thượng, X.Duy Phiên, H.Tam Dương, T.Vĩnh Phúc",
        "lon": 105.54981,
        "lat": 21.323756
      },
      {
        "id": 185112,
        "address_name": "Số 116-118 đường Cầu Diễn, P.Phúc Diễn, Q.Bắc Từ Liêm, TP.Hà Nội",
        "lon": 105.750518739223,
        "lat": 21.0455514410749
      },
      {
        "id": 185368,
        "address_name": "Số 254 đường Cổ Bi, X.Cổ Bi, H.Gia Lâm, TP.Hà Nội",
        "lon": 105.942588,
        "lat": 21.031542
      },
      {
        "id": 185624,
        "address_name": "103 Nguyễn Huy Tưởng, P.Hoà Minh, Q.Liên Chiểu, TP.Đà Nẵng",
        "lon": 108.169785,
        "lat": 16.052297
      },
      {
        "id": 185880,
        "address_name": "30 ngách 33A ngõ 107 Lĩnh Nam, P.Vĩnh Hưng, Q.Hoàng Mai, TP.Hà Nội",
        "lon": 105.8732,
        "lat": 20.9908
      },
      {
        "id": 187160,
        "address_name": "Sàn S1, Khu thương mại dịch vụ tầng 1, CT5C, Khu đô thị mới Văn Khê, P.La Khê, Q.Hà Đông, TP.Hà Nội",
        "lon": 105.763712525368,
        "lat": 20.9734817468564
      },
      {
        "id": 187416,
        "address_name": "Số 426 Khối Tân Phong, P.Quỳnh Thiện, Thị X.Hoàng Mai, T.Nghệ An",
        "lon": 105.711243152618,
        "lat": 19.2526573705007
      },
      {
        "id": 187672,
        "address_name": "170 Lê Thánh Tông, P.Trung Sơn, TP.Sầm Sơn, T.Thanh Hoá",
        "lon": 105.898024,
        "lat": 19.745938
      },
      {
        "id": 187928,
        "address_name": "188 phố 3.2, TT.Vĩnh Bảo, H.Vĩnh Bảo, TP.Hải Phòng",
        "lon": 106.479252,
        "lat": 20.688528
      },
      {
        "id": 188184,
        "address_name": "9 Nam Dư, P.Lĩnh Nam, Q.Hoàng Mai, TP.Hà Nội",
        "lon": 105.88784,
        "lat": 20.985533
      },
      {
        "id": 188440,
        "address_name": "Số 1 Đồng Niên, P.Việt Hòa, TP.Hải Dương, T.Hải Dương",
        "lon": 106.302546,
        "lat": 20.944116
      },
      {
        "id": 188696,
        "address_name": "Tổ dân phố Độc Lập, TT.Thanh Lãng, H.Bình Xuyên, T.Vĩnh Phúc",
        "lon": 105.61564,
        "lat": 21.243901
      },
      {
        "id": 188952,
        "address_name": "120-122 Ca Văn Thỉnh, P.11, Q.Tân Bình, TP.Hồ Chí Minh",
        "lon": 106.643589,
        "lat": 10.790039
      },
      {
        "id": 189208,
        "address_name": "BT01-6 Khu nhà ở thấp tầng thuộc Dự án Khu chung cư quốc tế Hoàng Thành City tại Khu Cổ Ngựa, Khu đô thị Mỗ Lao, P.Mộ Lao, Q.Hà Đông, TP.Hà Nội"
      },
      {
        "id": 189464,
        "address_name": "Thôn Phố Neo, X.Nam Giang, H.Thọ Xuân, T.Thanh Hoá",
        "lon": 105.544444,
        "lat": 19.908599
      },
      {
        "id": 185113,
        "address_name": "Số 70B phố Đội Cấn, P.Đội Cấn, Q.Ba Đình, TP.Hà Nội",
        "lon": 105.829485654831,
        "lat": 21.0345065034663
      },
      {
        "id": 185369,
        "address_name": "Số 250 đường Lạc Long Quân, P.Bưởi, Q.Tây Hồ, TP.Hà Nội",
        "lon": 105.809021,
        "lat": 21.054215
      },
      {
        "id": 185625,
        "address_name": "A01-11 (Block A, Tầng 01, vị trí số 11) Dream Home Residence, Số 148/21 Đường 59, P.14, Q.Gò Vấp, TP.Hồ Chí Minh",
        "lon": 106.744755,
        "lat": 10.789543
      },
      {
        "id": 185881,
        "address_name": "Tổ 2 Khu 2, P.Hồng Hà, TP.Hạ Long, T.Quảng Ninh",
        "lon": 107.05005875,
        "lat": 20.95661877
      },
      {
        "id": 187161,
        "address_name": "Chợ Ngọ Dương, X.An Hoà, H.An Dương, TP.Hải Phòng",
        "lon": 106.551826000214,
        "lat": 20.8810496003414
      },
      {
        "id": 187417,
        "address_name": "Số 73 Đường Sóng Hồng, P.Phú Bài, Thị X.Hương Thủy, T.Thừa Thiên Huế",
        "lon": 107.6817,
        "lat": 16.4084
      },
      {
        "id": 187673,
        "address_name": "Lô A7, Khu tái định cư Khách sạn Sầm Sơn, đường Lê Lợi, P.Trường Sơn, TP.Sầm Sơn, T.Thanh Hoá"
      },
      {
        "id": 187929,
        "address_name": "288 đường 17/8, P.Phan Thiết, TP.Tuyên Quang, T.Tuyên Quang",
        "lon": 105.205410718918,
        "lat": 21.8192287666965
      },
      {
        "id": 188185,
        "address_name": "25 Nguyễn Trung Ngạn, P.Trường Thi, TP.Vinh, T.Nghệ An",
        "lon": 105.689227,
        "lat": 18.6748947
      },
      {
        "id": 188441,
        "address_name": "111 Chi Lăng, P.Nguyễn Trãi, TP.Hải Dương, T.Hải Dương",
        "lon": 106.3263,
        "lat": 20.9432
      },
      {
        "id": 188697,
        "address_name": "Thôn đường 3, X.Phù Lỗ, H.Sóc Sơn, TP.Hà Nội",
        "lon": 105.848428,
        "lat": 21.196929
      },
      {
        "id": 188953,
        "address_name": "37 Lê Lợi, P.An Mỹ, TP.Tam Kỳ, T.Quảng Nam",
        "lon": 108.476577,
        "lat": 15.569078
      },
      {
        "id": 189209,
        "address_name": "43 Phan Đình Phùng, P.Bắc Lý, TP.Đồng Hới, T.Quảng Bình",
        "lon": 106.593032777309,
        "lat": 17.4708471248434
      },
      {
        "id": 189465,
        "address_name": "Tổ dân phố 9, TT.Nghèn, H.Can Lộc, T.Hà Tĩnh",
        "lon": 105.777671,
        "lat": 18.451219
      },
      {
        "id": 185114,
        "address_name": "Số 139, đường Chiến Thắng, X.Tân Triều, H.Thanh Trì, TP.Hà Nội",
        "lon": 105.795204341412,
        "lat": 20.9804991979623
      },
      {
        "id": 185370,
        "address_name": "Xóm Ngoài, X.Uy Nỗ, H.Đông Anh, TP.Hà Nội",
        "lon": 105.855966,
        "lat": 21.15982
      },
      {
        "id": 185626,
        "address_name": "Số 304 Trường Thi, P.Trường Thi, TP.Thanh Hoá, T.Thanh Hoá",
        "lon": 105.778171,
        "lat": 19.812321
      },
      {
        "id": 185882,
        "address_name": "40/5A11 đường N2, KP Bình Đáng, P.Bình Hòa, TP.Thuận An, T.Bình Dương",
        "lon": 106.729725,
        "lat": 10.919596
      },
      {
        "id": 187162,
        "address_name": "Số 202 Trần Hưng Đạo, TT.An Bài, H.Quỳnh Phụ, T.Thái Bình",
        "lon": 106.327330470085,
        "lat": 20.6605090271913
      },
      {
        "id": 187418,
        "address_name": "Số 332 Phố 1, TT.Ngọc Lặc, H.Ngọc Lặc, T.Thanh Hóa"
      },
      {
        "id": 187674,
        "address_name": "Ô 1, LKA5, Khu dân cư lấn biển Cọc 6, P.Cẩm Sơn, TP.Cẩm Phả, T.Quảng Ninh"
      },
      {
        "id": 187930,
        "address_name": "Lô 04, Tầng 1, Tòa CT1, Dự án nhà ở XH CBCS, Bộ Công An, P.Cổ Nhuế 2, Q.Bắc Từ Liêm, TP.Hà Nội",
        "lon": 105.420417,
        "lat": 21.429134
      },
      {
        "id": 188186,
        "address_name": "10 Nguyễn Du, P.Bảo An, TP.Phan Rang-Tháp Chàm, T.Ninh Thuận",
        "lon": 108.952293,
        "lat": 11.592929
      },
      {
        "id": 188442,
        "address_name": "124 Thanh Ấm, TT.Vân Đình, H.Ứng Hoà, TP.Hà Nội",
        "lon": 105.77153,
        "lat": 20.728081
      },
      {
        "id": 188698,
        "address_name": "SH A7, Tòa A, Anland Premium Khu ĐTM Dương Nội, Lê Văn Lương kéo dài, P.La Khê, Q.Hà Đông, TP.Hà Nội",
        "lon": 105.75703650713,
        "lat": 20.9717861890815
      },
      {
        "id": 188954,
        "address_name": "01 SH02 – 02 SH02, tầng 1 + tầng 2 Tòa S1.06 (Z34M.1) tại lô đất F1-CH01 thuộc Dự án khu Đô thị mới Tây Mỗ, Đại Mỗ - Vinhomes Park, P.Tây Mỗ, Q.Nam Từ Liêm, TP.Hà Nội"
      },
      {
        "id": 189210,
        "address_name": "Số 35 Thiên Cầm, TT.Cẩm Xuyên, H.Cẩm Xuyên, T.Hà Tĩnh",
        "lon": 106.002126,
        "lat": 18.251841
      },
      {
        "id": 189466,
        "address_name": "Số 94, Thôn Dũng Tiến, X.Kim Thư, H.Thanh Oai, TP.Hà Nội",
        "lon": 105.767772,
        "lat": 20.83947
      },
      {
        "id": 185115,
        "address_name": "Số 11 đường Nguyễn Sơn, P.Ngọc Lâm, Q.Long Biên, TP.Hà Nội",
        "lon": 105.877508,
        "lat": 21.047864
      },
      {
        "id": 185371,
        "address_name": "Số 207 đường Lương Thế Vinh, P.Trung Văn, Q.Nam Từ Liêm, TP.Hà Nội",
        "lon": 105.795737,
        "lat": 20.991325
      },
      {
        "id": 185627,
        "address_name": "Ô 9 lô LK1 KDC LK1, LK2, P.Hồng Hà, TP.Hạ Long, T.Quảng Ninh"
      },
      {
        "id": 185883,
        "address_name": "61, TDP 3 Do Nha, P.Tây Mỗ, Q.Nam Từ Liêm, TP.Hà Nội",
        "lon": 105.740243,
        "lat": 21.0173591
      },
      {
        "id": 187163,
        "address_name": "Khu phố Yên Lã, P.Tân Hồng, TP.Từ Sơn, T.Bắc Ninh",
        "lon": 105.961817800999,
        "lat": 21.114393582695
      },
      {
        "id": 187419,
        "address_name": "Thôn Hải Thanh, X.Hải Long, H.Như Thanh, T.Thanh Hóa"
      },
      {
        "id": 187675,
        "address_name": "213 Đà Nẵng, P.Cầu Tre, Q.Ngô Quyền, TP.Hải Phòng",
        "lon": 106.705122292042,
        "lat": 20.8613733291263
      },
      {
        "id": 187931,
        "address_name": "129 - 131 Chợ Hàng, P.Dư Hàng Kênh, Q.Lê Chân, TP.Hải Phòng",
        "lon": 106.684702,
        "lat": 20.841464
      },
      {
        "id": 188187,
        "address_name": "10/9 Võ Thị Sáu, P.Đông Hòa, TP.Dĩ An, T.Bình Dương",
        "lon": 106.774765849113,
        "lat": 10.899445990918
      },
      {
        "id": 188443,
        "address_name": "243 Phùng Chí Kiên, P.Hà Huy Tập, TP.Vinh, T.Nghệ An",
        "lon": 105.695425,
        "lat": 18.686987
      },
      {
        "id": 188699,
        "address_name": "41 Hai Bà Trưng, P.Phước Hiệp, TP.Bà Rịa, T.Bà Rịa - Vũng Tàu",
        "lon": 107.168236,
        "lat": 10.495874
      },
      {
        "id": 188955,
        "address_name": "167-169 Đường Nguyễn Trãi, P.Minh Phương, TP.Việt Trì, T.Phú Thọ",
        "lon": 105.367711,
        "lat": 21.334096
      },
      {
        "id": 189211,
        "address_name": "Thôn 2, X.Tông Lạnh, H.Thuận Châu, T.Sơn La",
        "lon": 103.763519,
        "lat": 21.419764
      },
      {
        "id": 189467,
        "address_name": "172/16A-18 An Phú Đông 09, P.An Phú Đông, Q.12, TP.Hồ Chí Minh",
        "lon": 106.682276,
        "lat": 10.853701
      },
      {
        "id": 185116,
        "address_name": "Số 152 Phố Yên Hòa, P.Yên Hoà, Q.Cầu Giấy, TP.Hà Nội",
        "lon": 105.794504284859,
        "lat": 21.0234307030543
      },
      {
        "id": 185372,
        "address_name": "TDP Số 5 Mễ Trì Hạ, P.Mễ Trì, Q.Nam Từ Liêm, TP.Hà Nội",
        "lon": 105.78294,
        "lat": 21.011729
      },
      {
        "id": 185628,
        "address_name": "141 Miếu Hai Xã, P.Dư Hàng Kênh, Q.Lê Chân, TP.Hải Phòng",
        "lon": 106.678448,
        "lat": 20.84299
      },
      {
        "id": 185884,
        "address_name": "Thôn Lỗ Khê, X.Liên Hà, H.Đông Anh, TP.Hà Nội",
        "lon": 105.8886,
        "lat": 21.1525
      },
      {
        "id": 187164,
        "address_name": "Khu phố Tiền Trong, P.Khắc Niệm, TP.Bắc Ninh, T.Bắc Ninh",
        "lon": 106.064767,
        "lat": 21.182432
      },
      {
        "id": 187420,
        "address_name": "Xóm Thuận Minh, X.Thuận Sơn, H.Đô Lương, T.Nghệ An",
        "lon": 105.39387345314,
        "lat": 18.873112965382
      },
      {
        "id": 187932,
        "address_name": "784 đường 3/2, P.Vĩnh Lạc, TP.Rạch Giá, T.Kiên Giang",
        "lon": 105.084689855576,
        "lat": 9.99750665097831
      },
      {
        "id": 188188,
        "address_name": "23/1 Khu phố Tân Thắng, P.Tân Bình, TP.Dĩ An, T.Bình Dương"
      },
      {
        "id": 188444,
        "address_name": "324 Đồng Dinh, P.Thạch Bàn, Q.Long Biên, TP.Hà Nội",
        "lon": 105.914240777493,
        "lat": 21.0228673774677
      },
      {
        "id": 188700,
        "address_name": "Thửa đất số 1473, tờ bản đồ số 3,Thôn Miếu Bông, X.Hoà Phước, H.Hoà Vang, TP.Đà Nẵng"
      },
      {
        "id": 188956,
        "address_name": "D04-L16 khu A khu ĐTM Dương Nội, P.Dương Nội, Q.Hà Đông, TP.Hà Nội"
      },
      {
        "id": 189212,
        "address_name": "Khu 3, X.Hùng Lô, TP.Việt Trì, T.Phú Thọ",
        "lon": 105.39589,
        "lat": 21.318212
      },
      {
        "id": 189468,
        "address_name": "Số 150 Phố Kim Anh, X.Thanh Xuân, H.Sóc Sơn, TP.Hà Nội",
        "lon": 105.760965,
        "lat": 21.22423
      },
      {
        "id": 185117,
        "address_name": "Số 20, phố Nguyễn Thiệp, P.Nguyễn Trung Trực, Q.Ba Đình, TP.Hà Nội",
        "lon": 105.848034,
        "lat": 21.040943
      },
      {
        "id": 185373,
        "address_name": "TT3 40-41, Khu đấu giá quyền sử dụng đất, đường Tứ Hiệp, X.Tứ Hiệp, H.Thanh Trì, TP.Hà Nội"
      },
      {
        "id": 185629,
        "address_name": "Số 90 phố Bình Minh, P.Phạm Ngũ Lão, TP.Hải Dương, T.Hải Dương",
        "lon": 106.31966739893,
        "lat": 20.9346919924058
      },
      {
        "id": 185885,
        "address_name": "Thôn Công Đình, X.Đình Xuyên, H.Gia Lâm, TP.Hà Nội",
        "lon": 105.936945676804,
        "lat": 21.074977242749
      },
      {
        "id": 187165,
        "address_name": "164/2C Khu Phố Thạnh Hòa B, P.An Thạnh, TP.Thuận An, T.Bình Dương",
        "lon": 106.694163,
        "lat": 10.948602
      },
      {
        "id": 187421,
        "address_name": "Số 118 Đường Tôn Thất Thuyết, P.5, TP.Đông Hà, T.Quảng Trị",
        "lon": 107.106084151268,
        "lat": 16.8094004622571
      },
      {
        "id": 187677,
        "address_name": "18 đường A1, KDC Hưng Phú 1, P.Hưng Phú, Q.Cái Răng, TP.Cần Thơ",
        "lon": 105.786387,
        "lat": 10.0184555
      },
      {
        "id": 187933,
        "address_name": "07 – 07A Nguyễn Bỉnh Khiêm, P.Vĩnh Thanh, TP.Rạch Giá, T.Kiên Giang",
        "lon": 105.090819,
        "lat": 10.021273
      },
      {
        "id": 188189,
        "address_name": "202/15/4 - 202/17 Huỳnh Văn Nghệ, P.Bửu Long, TP.Biên Hoà, T.Đồng Nai",
        "lon": 106.789837865357,
        "lat": 10.9616148203216
      },
      {
        "id": 188445,
        "address_name": "154 Đặng Châu Tuệ, P.Quang Hanh, TP.Cẩm Phả, T.Quảng Ninh",
        "lon": 107.206982374191,
        "lat": 20.994377854014
      },
      {
        "id": 188701,
        "address_name": "Khu Chợ, X.Hiền Ninh, H.Sóc Sơn, TP.Hà Nội",
        "lon": 105.771469473839,
        "lat": 21.2463123330455
      },
      {
        "id": 188957,
        "address_name": "369/14 Khu dân cư Bình Nhựt, P.Long Hòa, Q.Bình Thuỷ, TP.Cần Thơ"
      },
      {
        "id": 189213,
        "address_name": "Xóm Chợ, X.Cổ Loa, H.Đông Anh, TP.Hà Nội",
        "lon": 105.876429,
        "lat": 21.115142
      },
      {
        "id": 189469,
        "address_name": "78 Huỳnh Việt Thanh, P.2, TP.Tân An, T.Long An",
        "lon": 106.407945,
        "lat": 10.543287
      },
      {
        "id": 185118,
        "address_name": "Số 8 Ngõ 140 Giảng Võ, P.Giảng Võ, Q.Ba Đình, TP.Hà Nội"
      },
      {
        "id": 185374,
        "address_name": "130E-130G Đường Gò Dưa, khu phố 3, P.Tam Bình, TP.Thủ Đức, TP.Hồ Chí Minh",
        "lon": 106.736799,
        "lat": 10.869299
      },
      {
        "id": 185630,
        "address_name": "Đường Long Cảnh - Vinhomes Thăng Long, Khu đô thị mới Nam An Khánh, X.An Khánh, H.Hoài Đức, TP.Hà Nội",
        "lon": 105.7196,
        "lat": 20.9991
      },
      {
        "id": 185886,
        "address_name": "Tầng 1, Tòa Chung Cư Văn Phòng Trung Ương Đảng, Số 44 Ngõ 260 Đội Cấn, P.Liễu Giai, Q.Ba Đình, TP.Hà Nội"
      },
      {
        "id": 187166,
        "address_name": "Thôn La Đồng, X.Hợp Tiến, H.Mỹ Đức, TP.Hà Nội",
        "lon": 105.674770474434,
        "lat": 20.6784247852038
      },
      {
        "id": 187422,
        "address_name": "Số 39 Tổ 8 Đa Sỹ, P.Kiến Hưng, Q.Hà Đông, TP.Hà Nội",
        "lon": 105.786868035793,
        "lat": 20.958774585113
      },
      {
        "id": 187678,
        "address_name": "34 Chương Dương, P.Linh Chiểu, TP.Thủ Đức, TP.Hồ Chí Minh",
        "lon": 106.759869,
        "lat": 10.853151
      },
      {
        "id": 187934,
        "address_name": "0.14, tầng 01 (trệt), Chung cư cao tầng P.Trường Thọ, 17 Đường số 3, KP6, P.Trường Thọ, TP.Thủ Đức, TP.Hồ Chí Minh",
        "lon": 106.707553714514,
        "lat": 10.8972638602172
      },
      {
        "id": 188190,
        "address_name": "143 Hải Thượng Lãn Ông, P.Đông Hải, TP.Phan Rang-Tháp Chàm, T.Ninh Thuận",
        "lon": 109.023486,
        "lat": 11.548562
      },
      {
        "id": 188446,
        "address_name": "109 Hà Đặc, P.Trung Mỹ Tây, Q.12, TP.Hồ Chí Minh",
        "lon": 106.613697,
        "lat": 10.858548
      },
      {
        "id": 188702,
        "address_name": "Ngõ 14, đường Ngô Miễn, Xuân Mai 3, P.Phúc Thắng, TP.Phúc Yên, T.Vĩnh Phúc",
        "lon": 105.715473,
        "lat": 21.240572
      },
      {
        "id": 188958,
        "address_name": "107-109 Độc Lập, P.Tân Thành, Q.Tân Phú, TP.Hồ Chí Minh",
        "lon": 106.631966,
        "lat": 10.79239
      },
      {
        "id": 189214,
        "address_name": "Số 189 Phố Thứa, P.Phùng Chí Kiên, Thị X.Mỹ Hào, T.Hưng Yên",
        "lon": 106.0526,
        "lat": 20.9343
      },
      {
        "id": 189470,
        "address_name": "SH3-6, Tầng trệt, Khối HQ3, Khu chung cư cư CC1, Khu đô thị Nam TP., Nguyễn Văn Linh, X.An Phú Tây, H.Bình Chánh, TP.Hồ Chí Minh"
      },
      {
        "id": 185119,
        "address_name": "Số 71 Phố Khương Thượng, P.Trung Liệt, Q.Đống Đa, TP.Hà Nội",
        "lon": 105.825183391571,
        "lat": 21.0055134032447
      },
      {
        "id": 185375,
        "address_name": "Khu dân cư mở rộng 1/45 Đường Nguyễn Văn Quá, P.Đông Hưng Thuận, Q.12, TP.Hồ Chí Minh",
        "lon": 106.635284,
        "lat": 10.847646
      },
      {
        "id": 185631,
        "address_name": "Tầng 1, TTTM và VP cho thuê, Số 48 Tô Hiệu, P.Cẩm Trung, TP.Cẩm Phả, T.Quảng Ninh"
      },
      {
        "id": 185887,
        "address_name": "60 Trần Quốc Toản, P.Ninh Xá, TP.Bắc Ninh, T.Bắc Ninh",
        "lon": 106.064938008785,
        "lat": 21.1771963423887
      },
      {
        "id": 187167,
        "address_name": "Thôn Xuân Húc 2, X.Vân Xuân, H.Vĩnh Tường, T.Vĩnh Phúc",
        "lon": 105.53694,
        "lat": 21.231939
      },
      {
        "id": 187423,
        "address_name": "Số 479 Thôn Yên Thịnh, X.An Thịnh, H.Văn Yên, T.Yên Bái",
        "lon": 104.7193,
        "lat": 21.8465
      },
      {
        "id": 187679,
        "address_name": "48 đường số 26, P.Hiệp Bình Chánh, TP.Thủ Đức, TP.Hồ Chí Minh",
        "lon": 106.729002,
        "lat": 10.833966
      },
      {
        "id": 187935,
        "address_name": "SH.03, Tầng 1+2, tháp RS4, Khu Thương mại Dịch vụ và căn hộ, 278 và 239 - 241 Hòa Bình, P.Hiệp Tân, Q.Tân Phú, TP.Hồ Chí Minh"
      },
      {
        "id": 188191,
        "address_name": "95 Trường Chinh, P.Văn Hải, TP.Phan Rang-Tháp Chàm, T.Ninh Thuận",
        "lon": 109.011448,
        "lat": 11.582543
      },
      {
        "id": 188447,
        "address_name": "0.03, Tầng 01, Khối HQ4, Chung cư CC1-Khu 2-KTĐC Bến Lức-Khu chức năng số 17- KĐTM Nam TP., Ấp 3, X.An Phú Tây, H.Bình Chánh, TP.Hồ Chí Minh"
      },
      {
        "id": 188703,
        "address_name": "R2.119, số 28 lô X3 đường Trần Hữu Dực, P.Cầu Diễn, Q.Nam Từ Liêm, TP.Hà Nội",
        "lon": 105.763368,
        "lat": 21.0311
      },
      {
        "id": 188959,
        "address_name": "24A Đường Hồ Trung Thành, Khu vực 3, P.Trà An, Q.Bình Thuỷ, TP.Cần Thơ",
        "lon": 105.729833543301,
        "lat": 10.0891213732719
      },
      {
        "id": 189215,
        "address_name": "Thôn Yến Vỹ, X.Hương Sơn, H.Mỹ Đức, TP.Hà Nội",
        "lon": 105.777158,
        "lat": 20.6113986
      },
      {
        "id": 189471,
        "address_name": "302-304 Nguyễn Thị Kiểu, P.Hiệp Thành, Q.12, TP.Hồ Chí Minh"
      },
      {
        "id": 185120,
        "address_name": "Số 79 Ngõ 34 đường Vĩnh Tuy, P.Vĩnh Tuy, Q.Hai Bà Trưng, TP.Hà Nội",
        "lon": 105.8656,
        "lat": 20.9984
      },
      {
        "id": 185376,
        "address_name": "Số 1/23B Bùi Công Trừng, X.Đông Thạnh, H.Hóc Môn, TP.Hồ Chí Minh",
        "lon": 106.649076,
        "lat": 10.908703
      },
      {
        "id": 185632,
        "address_name": "Tầng 1, tòa nhà CT2-105, KĐT mới Văn Khê, P.La Khê, Q.Hà Đông, TP.Hà Nội",
        "lon": 105.763157308102,
        "lat": 20.9745737059354
      },
      {
        "id": 185888,
        "address_name": "119 Đường Nước Phần Lan, P.Tứ Liên, Q.Tây Hồ, TP.Hà Nội",
        "lon": 105.835745930672,
        "lat": 21.0634614239982
      },
      {
        "id": 187168,
        "address_name": "19 Phan Bội Châu, P.Xuân An, TP.Long khánh, T.Đồng Nai",
        "lon": 107.248143,
        "lat": 10.930049
      },
      {
        "id": 187424,
        "address_name": "Khu phố Do Nha, P.Phương Liễu, Thị X.Quế Võ, T.Bắc Ninh",
        "lon": 106.118284,
        "lat": 21.158357
      },
      {
        "id": 187680,
        "address_name": "G1, Khu 94, KP Long Đức 1, P.Tam Phước, TP.Biên Hoà, T.Đồng Nai",
        "lon": 106.968507170677,
        "lat": 10.866913861357
      },
      {
        "id": 187936,
        "address_name": "98 Miếu Thờ, X.Tiên Dược, H.Sóc Sơn, TP.Hà Nội",
        "lon": 105.8489,
        "lat": 21.242312
      },
      {
        "id": 188192,
        "address_name": "89 Nguyễn Thái Học, P.Minh Khai, TP.Hà Giang, T.Hà Giang",
        "lon": 104.984536170959,
        "lat": 22.8200070043872
      },
      {
        "id": 188448,
        "address_name": "Xóm 6,Thôn 3, X.Thạch Thán, H.Quốc Oai, TP.Hà Nội",
        "lon": 105.63737,
        "lat": 20.991298
      },
      {
        "id": 188704,
        "address_name": "TDP Đoàn Kết, TT.Sơn Dương, H.Sơn Dương, T.Tuyên Quang",
        "lon": 105.406178,
        "lat": 21.698364
      },
      {
        "id": 188960,
        "address_name": "Trung tâm thương mại - Dịch vụ Bờ Trái Sông Đà, P.Tân Thịnh, TP.Hoà Bình, T.Hòa Bình",
        "lon": 105.3275,
        "lat": 20.8287
      },
      {
        "id": 189216,
        "address_name": "Thôn Đông Viên, X.Hữu Văn, H.Chương Mỹ, TP.Hà Nội",
        "lon": 105.710422,
        "lat": 20.943924
      },
      {
        "id": 189472,
        "address_name": "148 đường số 9, P.16, Q.Gò Vấp, TP.Hồ Chí Minh",
        "lon": 106.667633056641,
        "lat": 10.8434087644283
      },
      {
        "id": 185121,
        "address_name": "Số 384 đường Bạch Đằng, P.Chương Dương, Q.Hoàn Kiếm, TP.Hà Nội",
        "lon": 105.862568020821,
        "lat": 21.0223541234134
      },
      {
        "id": 185377,
        "address_name": "108 ĐHT02, P.Đông Hưng Thuận, Q.12, TP.Hồ Chí Minh",
        "lon": 106.62741,
        "lat": 10.835681
      },
      {
        "id": 185633,
        "address_name": "144 Hai Bà Trưng, P.Tiền An, TP.Bắc Ninh, T.Bắc Ninh",
        "lon": 106.068941,
        "lat": 21.18019
      },
      {
        "id": 185889,
        "address_name": "22 Hoàng Diệu, P.Quang Trung, Thị X.Sơn Tây, TP.Hà Nội",
        "lon": 105.506205,
        "lat": 21.135867
      },
      {
        "id": 187169,
        "address_name": "238 Đường 30/4, P.Rạch Dừa, TP.Vũng Tàu, T.Bà Rịa - Vũng Tàu",
        "lon": 107.105528,
        "lat": 10.39464
      },
      {
        "id": 187425,
        "address_name": "A-0.07, Tầng Trệt tại Chung cư Thủ Thiêm Dragon, số 55 đường Quách Giai, P. Thạnh Mỹ Lợi, TP.Thủ Đức, TP.Hồ Chí Minh",
        "lon": 105.849147,
        "lat": 21.140395
      },
      {
        "id": 187681,
        "address_name": "Lô 112 đường A1, khu đô thị Vĩnh Điềm Trung, X.Vĩnh Hiệp, TP.Nha Trang, T.Khánh Hòa",
        "lon": 109.170123338699,
        "lat": 12.2558209609346
      },
      {
        "id": 187937,
        "address_name": "815 Dương Tự Minh, P.Quang Vinh, TP.Thái Nguyên, T.Thái Nguyên",
        "lon": 105.81541210413,
        "lat": 21.606534891775
      },
      {
        "id": 188193,
        "address_name": "50 Trần Phú, P.Minh Khai, TP.Hà Giang, T.Hà Giang",
        "lon": 104.986802637577,
        "lat": 22.8183579926074
      },
      {
        "id": 188449,
        "address_name": "D.1.10, tầng 1, Khối D, Khu Nhà ở X.Phước Kiển, Ấp 5, X.Phước Kiển, H.Nhà Bè, TP.Hồ Chí Minh"
      },
      {
        "id": 188705,
        "address_name": "55 Võ Trường Toản, P.9, TP.Vũng Tàu, T.Bà Rịa - Vũng Tàu"
      },
      {
        "id": 188961,
        "address_name": "149 Lý Thường Kiệt, P.An Mỹ, TP.Tam Kỳ, T.Quảng Nam",
        "lon": 108.477042,
        "lat": 15.568517
      },
      {
        "id": 189217,
        "address_name": "171 Nguyễn Tất Thành, Khu Phố 3, P.Phước Nguyên, TP.Bà Rịa, T.Bà Rịa - Vũng Tàu",
        "lon": 107.180669903755,
        "lat": 10.4997590692798
      },
      {
        "id": 189473,
        "address_name": "Thôn Yên Thành, X.Tản Lĩnh, H.Ba Vì, TP.Hà Nội",
        "lon": 105.390735268593,
        "lat": 21.1245093644731
      },
      {
        "id": 185122,
        "address_name": "Số 232 Khương Đình, P.Hạ Đình, Q.Thanh Xuân, TP.Hà Nội",
        "lon": 105.813557,
        "lat": 20.992549
      },
      {
        "id": 185378,
        "address_name": "Số 173 đường Liên khu 4-5, P.Bình Hưng Hòa B, Q.Bình Tân, TP.Hồ Chí Minh",
        "lon": 106.586605,
        "lat": 10.799461
      },
      {
        "id": 185634,
        "address_name": "Số 20 Chợ Lũng, P.Đằng Hải, Q.Hải An, TP.Hải Phòng",
        "lon": 106.715524,
        "lat": 20.839719
      },
      {
        "id": 185890,
        "address_name": "160 Trần Quang Diệu, P.An Thới, Q.Bình Thuỷ, TP.Cần Thơ",
        "lon": 105.762284249067,
        "lat": 10.0585283551539
      },
      {
        "id": 187170,
        "address_name": "Tổ Dân Phố 4, TT.Tằng Loỏng, H.Bảo Thắng, T.Lào Cai",
        "lon": 104.119789302349,
        "lat": 22.3095052472056
      },
      {
        "id": 187426,
        "address_name": "Thôn Hoa Trung, X.Hoa Lộc, H.Hậu Lộc, T.Thanh Hóa"
      },
      {
        "id": 187938,
        "address_name": "69 Bà Triệu, P.Bắc Sơn, TP.Sầm Sơn, T.Thanh Hoá",
        "lon": 105.898256,
        "lat": 19.740708
      },
      {
        "id": 188194,
        "address_name": "Thôn Cổ Điển, Khu dân cư Bắc Thăng Long, X.Hải Bối, H.Đông Anh, TP.Hà Nội",
        "lon": 105.78535,
        "lat": 21.112521
      },
      {
        "id": 188450,
        "address_name": "TM 1.02, Tầng 1, Newton Residence, 38 Trương Quốc Dung, P.08, Q.Phú Nhuận, TP.Hồ Chí Minh",
        "lon": 106.672747,
        "lat": 10.798115
      },
      {
        "id": 188706,
        "address_name": "43 Quách Văn Tuấn, P.12, Q.Tân Bình, TP.Hồ Chí Minh",
        "lon": 106.652491,
        "lat": 10.799067
      },
      {
        "id": 188962,
        "address_name": "Xóm Đề Thám, X.Trực Cường, H.Trực Ninh, T.Nam Định",
        "lon": 106.216933,
        "lat": 20.201308
      },
      {
        "id": 189218,
        "address_name": "Số 40 Thôn Cao Trung, X.Đức Giang, H.Hoài Đức, TP.Hà Nội",
        "lon": 105.700772,
        "lat": 21.067141
      },
      {
        "id": 189474,
        "address_name": "Thôn Yên Lạc 1, X.Cần Kiệm, H.Thạch Thất, TP.Hà Nội",
        "lon": 105.576421916485,
        "lat": 21.0297272863913
      },
      {
        "id": 185123,
        "address_name": "Số 195 Phố Hoa Lâm, P.Việt Hưng, Q.Long Biên, TP.Hà Nội",
        "lon": 105.896812,
        "lat": 21.055292
      },
      {
        "id": 185379,
        "address_name": "số 616-618 Lê Thanh Nghị, P.Lê Thanh Nghị, TP.Hải Dương, T.Hải Dương",
        "lon": 106.32826924324,
        "lat": 20.9241148679111
      },
      {
        "id": 185635,
        "address_name": "Thửa Đất Số 05,Thôn Lai Xá,Khu TĐC Lai Xá, X.Kim Chung, H.Hoài Đức, TP.Hà Nội",
        "lon": 105.898869037628,
        "lat": 21.027098526487
      },
      {
        "id": 185891,
        "address_name": "Tầng Trệt, Lô B, Chung Cư 312 Lạc Long Quân, P.5, Q.11, TP.Hồ Chí Minh",
        "lon": 106.643538,
        "lat": 10.767636
      },
      {
        "id": 187171,
        "address_name": "39 Lê Thị Trung, P.Phú Lợi, TP.Thủ Dầu Một, T.Bình Dương",
        "lon": 106.673449,
        "lat": 10.98792
      },
      {
        "id": 187427,
        "address_name": "93B/2 Lê Ngô Cát, Khu phố 5, P. Tân Hòa, TP.Biên Hòa, T.Đồng Nai",
        "lon": 106.909922361374,
        "lat": 10.9724255343737
      },
      {
        "id": 187683,
        "address_name": "152 Đinh Quang Ân, P.Phước Tân, TP.Biên Hoà, T.Đồng Nai"
      },
      {
        "id": 187939,
        "address_name": "73 Ngô Thì Nhậm, P.Trung Sơn, TP.Tam Điệp, T.Ninh Bình",
        "lon": 105.920018,
        "lat": 20.1531458
      },
      {
        "id": 188195,
        "address_name": "Thôn Bình An, X.Trung Giã, H.Sóc Sơn, TP.Hà Nội",
        "lon": 105.87206,
        "lat": 21.320178
      },
      {
        "id": 188451,
        "address_name": "327 Nguyễn Trung Trực, P.Vĩnh Lạc, TP.Rạch Giá, T.Kiên Giang",
        "lon": 105.091444,
        "lat": 9.998625
      },
      {
        "id": 188963,
        "address_name": "Thôn Mạch Lũng, X.Đại Mạch, H.Đông Anh, TP.Hà Nội",
        "lon": 105.744400620461,
        "lat": 21.1227429680017
      },
      {
        "id": 189219,
        "address_name": "31/3 Ấp Phước Bình, X.Phước Tỉnh, H.Long Điền, T.Bà Rịa - Vũng Tàu",
        "lon": 107.200896441936,
        "lat": 10.4136024216297
      },
      {
        "id": 189475,
        "address_name": "124/1 Khu Phố Đông Tư, P.Lái Thiêu, TP.Thuận An, T.Bình Dương",
        "lon": 106.702264,
        "lat": 10.913696
      },
      {
        "id": 185124,
        "address_name": "Số 1 ngõ 71 đường Lê Văn Lương, P.Nhân Chính, Q.Thanh Xuân, TP.Hà Nội",
        "lon": 105.813319,
        "lat": 21.008466
      },
      {
        "id": 185380,
        "address_name": "Số 371 Cao Lỗ, X.Uy Nỗ, H.Đông Anh, TP.Hà Nội",
        "lon": 105.859459340572,
        "lat": 21.1379993358051
      },
      {
        "id": 185636,
        "address_name": "Tầng 1, Nhà HH Cao tầng Đồng Phát Hoàng Mai, P.Vĩnh Hưng, Q.Hoàng Mai, TP.Hà Nội",
        "lon": 105.86363,
        "lat": 20.963462
      },
      {
        "id": 185892,
        "address_name": "C2 Cao Thị Chính, P.Phú Thuận, Q.7, TP.Hồ Chí Minh",
        "lon": 106.73649340868,
        "lat": 10.7357670294822
      },
      {
        "id": 187172,
        "address_name": "08 Lưu Văn Viết, P.Tân Tiến, TP.Biên Hoà, T.Đồng Nai",
        "lon": 106.837403476238,
        "lat": 10.9622692028425
      },
      {
        "id": 187428,
        "address_name": "Ngõ 12, Đội 1, X.Tả Thanh Oai, H.Thanh Trì, TP.Hà Nội",
        "lon": 105.8105,
        "lat": 20.9528
      },
      {
        "id": 187684,
        "address_name": "71 đường số 9, P.Bình Chiểu, TP.Thủ Đức, TP.Hồ Chí Minh",
        "lon": 106.742423,
        "lat": 10.876264
      },
      {
        "id": 187940,
        "address_name": "Số nhà B12, Xóm Đường, thôn Thụy Hương, X.Phú Cường, H.Sóc Sơn, TP.Hà Nội"
      },
      {
        "id": 188196,
        "address_name": "817 Mạc Đăng Doanh, P.Đa Phúc, Q.Dương Kinh, TP.Hải Phòng",
        "lon": 106.655445098877,
        "lat": 20.7911157440676
      },
      {
        "id": 188452,
        "address_name": "78 Mạc Đĩnh Chi, P.9, TP.Sóc Trăng, T.Sóc Trăng",
        "lon": 105.978991985321,
        "lat": 9.60220712663625
      },
      {
        "id": 188708,
        "address_name": "Thôn Cậy, X.Long Xuyên, H.Bình Giang, T.Hải Dương",
        "lon": 106.223717,
        "lat": 20.899245
      },
      {
        "id": 188964,
        "address_name": "Chợ Tổng, X.Lưu Kiếm, H.Thuỷ Nguyên, TP.Hải Phòng",
        "lon": 106.672584,
        "lat": 20.9672015
      },
      {
        "id": 189220,
        "address_name": "101 Huỳnh Ngọc Huệ, TT.Ái Nghĩa, H.Đại Lộc, T.Quảng Nam",
        "lon": 108.110688328743,
        "lat": 15.8941812834081
      },
      {
        "id": 189476,
        "address_name": "72 Y Moan Êñuôl, P.Tân Lợi, TP.Buôn Ma Thuột, T.Đắk Lắk",
        "lon": 108.053938,
        "lat": 12.702913
      },
      {
        "id": 185125,
        "address_name": "Số 230 ngõ Văn Chương, Phố Khâm Thiên, P.Văn Chương, Q.Đống Đa, TP.Hà Nội",
        "lon": 105.8347,
        "lat": 21.0209
      },
      {
        "id": 185381,
        "address_name": "số 2-NV1, Khu nhà ở cho cán bộ nhân viên Viện 103-Học viện Quân y, X.Tân Triều, H.Thanh Trì, TP.Hà Nội"
      },
      {
        "id": 185637,
        "address_name": "8/2B Trần Văn Mười, Ấp 3, X.Xuân Thới Thượng, H.Hóc Môn, TP.Hồ Chí Minh",
        "lon": 106.589625,
        "lat": 10.86002
      },
      {
        "id": 185893,
        "address_name": "134 Lò Đúc, P.Đống Mác, Q.Hai Bà Trưng, TP.Hà Nội",
        "lon": 105.858289,
        "lat": 21.012658
      },
      {
        "id": 187173,
        "address_name": "48 Trần Hưng Đạo, P.1, TP.Đông Hà, T.Quảng Trị",
        "lon": 107.095231,
        "lat": 16.821872
      },
      {
        "id": 187429,
        "address_name": "0.08 Lầu Trệt (Thông tầng) Block A1 Chung cư Westgate, Đường Tân Túc, KP. 4, TT.Tân Túc, H. Bình Chánh, TP.Hồ Chí Minh"
      },
      {
        "id": 187685,
        "address_name": "300 Nguyễn Đức Thiệu, P.Dĩ An, TP.Dĩ An, T.Bình Dương",
        "lon": 106.747932,
        "lat": 10.901066
      },
      {
        "id": 187941,
        "address_name": "Khu 10, chợ Phố Hạ, X.Mê Linh, H.Mê Linh, TP.Hà Nội",
        "lon": 105.778235,
        "lat": 21.17001
      },
      {
        "id": 188197,
        "address_name": "Tổ 52 khu 5, P.Cửa Ông, TP.Cẩm Phả, T.Quảng Ninh",
        "lon": 107.366082966328,
        "lat": 21.0297973860207
      },
      {
        "id": 188453,
        "address_name": "86 Nguyễn Huệ, P.2, TP.Vĩnh Long, T.Vĩnh Long",
        "lon": 105.960593372583,
        "lat": 10.2490860463462
      },
      {
        "id": 188709,
        "address_name": "Số 109 đường Quang Trung, TT.Quế, H.Kim Bảng, T.Hà Nam",
        "lon": 105.871168,
        "lat": 20.579099
      },
      {
        "id": 188965,
        "address_name": "708 Khu Mễ Xá 2, P.Hưng Đạo, Thị X.Đông Triều, T.Quảng Ninh",
        "lon": 106.519709229469,
        "lat": 21.0755403711972
      },
      {
        "id": 189221,
        "address_name": "E2/6N đường Thới Hòa, Ấp 5A, X.Vĩnh Lộc A, H.Bình Chánh, TP.Hồ Chí Minh",
        "lon": 106.585188,
        "lat": 10.83228
      },
      {
        "id": 189477,
        "address_name": "Khu Minh Tân, X.Minh Tân, H.Cẩm Khê, T.Phú Thọ",
        "lon": 105.0779,
        "lat": 21.4773
      },
      {
        "id": 185126,
        "address_name": "Số 03 ngõ 268/58 Ngọc Thụy, P.Ngọc Thuỵ, Q.Long Biên, TP.Hà Nội",
        "lon": 105.865704,
        "lat": 21.05811
      },
      {
        "id": 185382,
        "address_name": "C3/5 Ấp 3, X.Vĩnh Lộc A, H.Bình Chánh, TP.Hồ Chí Minh",
        "lon": 106.566795,
        "lat": 10.831898
      },
      {
        "id": 185638,
        "address_name": "Số 63, TDP 1, Ngọc Trục, P.Đại Mỗ, Q.Nam Từ Liêm, TP.Hà Nội",
        "lon": 105.773266553879,
        "lat": 20.9896474356849
      },
      {
        "id": 185894,
        "address_name": "30 Phạm Văn Đồng, P.Dịch Vọng Hậu, Q.Cầu Giấy, TP.Hà Nội",
        "lon": 105.781448,
        "lat": 21.0437127
      },
      {
        "id": 187174,
        "address_name": "Số 181 Phố Thanh Xuân, TT.Đồi Ngô, H.Lục Nam, T.Bắc Giang ",
        "lon": 106.378061771393,
        "lat": 21.3003403103255
      },
      {
        "id": 187430,
        "address_name": "Thửa đất số (lô) 577a, Tờ bản đồ số 5, Thôn Gia Huệ, X.Đại Minh, H.Đại Lộc, T.Quảng Nam"
      },
      {
        "id": 187686,
        "address_name": "2A Nguyễn Trãi, P.Phú Cường, TP.Thủ Dầu Một, T.Bình Dương",
        "lon": 106.654758,
        "lat": 10.979529
      },
      {
        "id": 187942,
        "address_name": "156 Trần Thái Tông, P.Thống Nhất, TP.Nam Định, T.Nam Định",
        "lon": 106.173257,
        "lat": 20.439416
      },
      {
        "id": 188198,
        "address_name": "491 Nguyễn Thị Minh Khai, P.7, TP.Trà Vinh, T.Trà Vinh",
        "lon": 106.332666,
        "lat": 9.929937
      },
      {
        "id": 188710,
        "address_name": "Số 138 phố Hùng Thắng, TT.Tiền Hải, H.Tiền Hải, T.Thái Bình",
        "lon": 106.499866247177,
        "lat": 20.4016389982472
      },
      {
        "id": 188966,
        "address_name": "Thôn Phượng Đồng, X.Phụng Châu, H.Chương Mỹ, TP.Hà Nội",
        "lon": 105.710422,
        "lat": 20.943924
      },
      {
        "id": 189222,
        "address_name": "C5/BC68 đường Tân Liêm, KDC số 4, X.Phong Phú, H.Bình Chánh, TP.Hồ Chí Minh"
      },
      {
        "id": 189478,
        "address_name": "Số 119 khu Công Nông, P.Mạo Khê, Thị X.Đông Triều, T.Quảng Ninh",
        "lon": 106.599145531654,
        "lat": 21.0662397187801
      },
      {
        "id": 185127,
        "address_name": "Số 3, ngõ 55, phố Đỗ Quang, P.Trung Hoà, Q.Cầu Giấy, TP.Hà Nội",
        "lon": 105.802575051785,
        "lat": 21.0107641261487
      },
      {
        "id": 185383,
        "address_name": "Số 25 Bùi Công Trừng, P.Thạnh Xuân, Q.12, TP.Hồ Chí Minh",
        "lon": 106.688831,
        "lat": 10.898511
      },
      {
        "id": 185639,
        "address_name": "NO – 26, LK15 Hà Trì, P.Hà Cầu, Q.Hà Đông, TP.Hà Nội",
        "lon": 105.782158076763,
        "lat": 20.9642824263152
      },
      {
        "id": 185895,
        "address_name": "Xóm 8, thôn Thụy Khuê, X.Sài Sơn, H.Quốc Oai, TP.Hà Nội",
        "lon": 105.644238889217,
        "lat": 21.0299701313953
      },
      {
        "id": 187175,
        "address_name": "283F/3 Đường An Phú 06, P.An Phú, TP.Thuận An, T.Bình Dương",
        "lon": 106.738914724588,
        "lat": 10.9425477817381
      },
      {
        "id": 187431,
        "address_name": "Số 117 Thôn Thị Tứ, X.Đồng Tiến, H.Triệu Sơn, T.Thanh Hóa",
        "lon": 105.682954,
        "lat": 19.77746
      },
      {
        "id": 187687,
        "address_name": "51 Nguyễn Nhàn, P.Hoà Thọ Đông, Q.Cẩm Lệ, TP.Đà Nẵng",
        "lon": 108.195607066154,
        "lat": 16.0109236358509
      },